[
  {
    "id":52,
    "name":"Frankfurt",
    "description":"Llegada!",
    "latitude":"5.011.092.210",
    "longitude":"868.212.670",
    "date":"25/03/2013 0:00",
    "point_order":52,
    "city_id":3,
    "city":"Frankfurt",
    "province_id":3,
    "province":"Hesse",
    "country_id":1,
    "country":"Germany"
  },
  {
    "id":297,
    "name":"Frankfurt (Main) Hbf",
    "description":"Tren al hostel igual q plaza miserere",
    "latitude":"5.010.714.500",
    "longitude":"866.378.900",
    "date":"25/03/2013 0:00",
    "point_order":303,
    "city_id":3,
    "city":"Frankfurt",
    "province_id":3,
    "province":"Hesse",
    "country_id":1,
    "country":"Germany"
  },
  {
    "id":298,
    "name":"Frankfurt hostel",
    "description":"Hostel, no sabiamos y parece que incluia la cena! asique nos ahorramos una comida. Mañana Belin esperemos que este copado el hostel.",
    "latitude":"5.010.769.878",
    "longitude":"866.565.943",
    "date":"25/03/2013 0:00",
    "point_order":304,
    "city_id":3,
    "city":"Frankfurt",
    "province_id":3,
    "province":"Hesse",
    "country_id":1,
    "country":"Germany"
  },
  {
    "id":299,
    "name":"Oberbayern",
    "description":"Un barcito que nos recomendo un mexicano en el hostel. A 20 cuadras del hostel, bastante fresco para caminar de noche... ",
    "latitude":"5.010.557.942",
    "longitude":"869.046.450",
    "date":"25/03/2013 0:00",
    "point_order":305,
    "city_id":3,
    "city":"Frankfurt",
    "province_id":3,
    "province":"Hesse",
    "country_id":1,
    "country":"Germany"
  },
  {
    "id":53,
    "name":"Berlin",
    "description":"",
    "latitude":"5.251.917.100",
    "longitude":"1.340.609.120",
    "date":"26/03/2013 0:00",
    "point_order":53,
    "city_id":1,
    "city":"Berlin",
    "province_id":1,
    "province":"Berlin",
    "country_id":1,
    "country":"Germany"
  },
  {
    "id":300,
    "name":"Berlin Hbf",
    "description":"Recien llegado a berlin. Todavia hay nieve en las calles y en los prox dias la temperatura mas akta 0 grados",
    "latitude":"5.252.559.200",
    "longitude":"1.336.954.500",
    "date":"26/03/2013 0:00",
    "point_order":306,
    "city_id":1,
    "city":"Berlin",
    "province_id":1,
    "province":"Berlin",
    "country_id":1,
    "country":"Germany"
  },
  {
    "id":301,
    "name":"Heart of gold hostel",
    "description":"",
    "latitude":"5.252.436.817",
    "longitude":"1.339.164.734",
    "date":"26/03/2013 0:00",
    "point_order":307,
    "city_id":1,
    "city":"Berlin",
    "province_id":1,
    "province":"Berlin",
    "country_id":1,
    "country":"Germany"
  },
  {
    "id":302,
    "name":"Reichstag",
    "description":"Parlamento aleman. No pudimos entrar porque hay que reservar pero mañana vamos temprano. En la cupula de vidrio hay una vista panoramica que dicen que es muy linda. Como se ve esta todo nevado! Hoy hizo -1 grados y en los proximos dias dicen que 0...",
    "latitude":"5.251.862.340",
    "longitude":"1.337.619.780",
    "date":"26/03/2013 0:00",
    "point_order":308,
    "city_id":1,
    "city":"Berlin",
    "province_id":1,
    "province":"Berlin",
    "country_id":1,
    "country":"Germany"
  },
  {
    "id":303,
    "name":"Plaza de la republica",
    "description":"Como todo berlin cubierto de nieve! los parques tiene mas de 10 cm de nieve que no se descongelo todavia",
    "latitude":"5.251.848.090",
    "longitude":"1.337.508.060",
    "date":"26/03/2013 0:00",
    "point_order":309,
    "city_id":1,
    "city":"Berlin",
    "province_id":1,
    "province":"Berlin",
    "country_id":1,
    "country":"Germany"
  },
  {
    "id":304,
    "name":"Siegessauge - Coluna del a victoria",
    "description":"Conmemora la victoria de Prusia y el imperio austriaco contra dinamarca. Estaba en frente del Reichtag pero la movieron los nazis a donde esta ahora,",
    "latitude":"5.251.454.340",
    "longitude":"1.335.011.890",
    "date":"26/03/2013 0:00",
    "point_order":310,
    "city_id":1,
    "city":"Berlin",
    "province_id":1,
    "province":"Berlin",
    "country_id":1,
    "country":"Germany"
  },
  {
    "id":305,
    "name":"Brandenburg Gate",
    "description":"Conmemora la libertad y democracia.",
    "latitude":"5.251.622.090",
    "longitude":"1.337.782.860",
    "date":"26/03/2013 0:00",
    "point_order":311,
    "city_id":1,
    "city":"Berlin",
    "province_id":1,
    "province":"Berlin",
    "country_id":1,
    "country":"Germany"
  },
  {
    "id":306,
    "name":"Holocaust Memorial",
    "description":"Un monumento para la memoria del holocausto. 2711 bloques de concreto en forma de cuadrilla, todos de tamaños diferentes (desde algunos al raz del piso afuera a algunos de 4 metros en el medio) con pasillos entre los bloques que van variando de forma sinuosa la altura. ",
    "latitude":"5.251.415.686",
    "longitude":"1.337.888.287",
    "date":"27/03/2013 0:00",
    "point_order":312,
    "city_id":1,
    "city":"Berlin",
    "province_id":1,
    "province":"Berlin",
    "country_id":1,
    "country":"Germany"
  },
  {
    "id":307,
    "name":"Führerbunker",
    "description":"El lugar donde estubo el bunker de Hitler. Ahora es un estacionamiento y lo que fue el bunker esta practicamente desmantelado aunque sigue la estructura bajo tierra",
    "latitude":"5.251.285.100",
    "longitude":"1.338.334.607",
    "date":"27/03/2013 0:00",
    "point_order":313,
    "city_id":1,
    "city":"Berlin",
    "province_id":1,
    "province":"Berlin",
    "country_id":1,
    "country":"Germany"
  },
  {
    "id":308,
    "name":"Checkpoint Charlie",
    "description":"El punto mas importante de cruce del muro de berlin entre berlin del este y oeste. Ese cruce era con uno de los barrios del territorio de estados unidos.",
    "latitude":"5.250.743.610",
    "longitude":"1.339.054.380",
    "date":"27/03/2013 0:00",
    "point_order":314,
    "city_id":1,
    "city":"Berlin",
    "province_id":1,
    "province":"Berlin",
    "country_id":1,
    "country":"Germany"
  },
  {
    "id":309,
    "name":"Gendarmenmarkt",
    "description":"Plaza de la epoca de los prusianos. Originalmente se encontraba la gendarmeria que protejia el barrio frances y un mercado. Cuando todavia el imperio era joven y necesitaban que crezca el numero de habitates el rey le dio el espacio a los franceses que llegaban a prusia el espacio para hacer una iglesia efatizando la libre eleccion de religion. En la misma plaza se construyo  mas tarde una iglesia protestante y luego en el medio de ambas un teatro para que empujar la cultura y las artes como asi tabien el intercambio e integracion de las culturas. Mas tarde se construyeron las catedrales gemelas al lado de cada iglesia con su correspndiente religion. Durante la segunda guerra mundial fue destruido todo lo de la plaza pero despues lo reconstruyeron.",
    "latitude":"5.251.361.110",
    "longitude":"1.339.277.780",
    "date":"27/03/2013 0:00",
    "point_order":315,
    "city_id":1,
    "city":"Berlin",
    "province_id":1,
    "province":"Berlin",
    "country_id":1,
    "country":"Germany"
  },
  {
    "id":310,
    "name":"Bebelplatz",
    "description":"Plaza frente a la universidad de Humboldt. A un costado estaba la biblioteca donde los nazis sacaron los libros y en la plaza hicieron la gran quema. Al otro lado esta una de las operas de berlin y a 50 metros esta la catedral catolica de berlin.",
    "latitude":"5.251.656.683",
    "longitude":"1.339.384.475",
    "date":"27/03/2013 0:00",
    "point_order":316,
    "city_id":1,
    "city":"Berlin",
    "province_id":1,
    "province":"Berlin",
    "country_id":1,
    "country":"Germany"
  },
  {
    "id":311,
    "name":"Monumeno a las victimas de las guerras y de la tirania",
    "description":"Dentro esta la escultura de la madre con el hijo muerto. Esta en el centro del monumento y sobre ella no hay techo por lo que esta debajo de lluvias, sol y nevadas. Recuerda a todos las victimas de las guerras y la tirania sin importar religion ni grupo etnico.",
    "latitude":"5.251.787.911",
    "longitude":"1.339.549.699",
    "date":"27/03/2013 0:00",
    "point_order":317,
    "city_id":1,
    "city":"Berlin",
    "province_id":1,
    "province":"Berlin",
    "country_id":1,
    "country":"Germany"
  },
  {
    "id":312,
    "name":"Isla de los museos",
    "description":"En esta isla estan los museos mas importantes de berlin y la catedral protestante.",
    "latitude":"5.251.839.930",
    "longitude":"1.339.947.890",
    "date":"27/03/2013 0:00",
    "point_order":318,
    "city_id":1,
    "city":"Berlin",
    "province_id":1,
    "province":"Berlin",
    "country_id":1,
    "country":"Germany"
  },
  {
    "id":313,
    "name":"Muro de berlin",
    "description":"Restos del muro de berlin con su zona de exclusion (zona de la muerte) junto al rio spree",
    "latitude":"5.250.458.484",
    "longitude":"1.344.044.209",
    "date":"27/03/2013 0:00",
    "point_order":319,
    "city_id":1,
    "city":"Berlin",
    "province_id":1,
    "province":"Berlin",
    "country_id":1,
    "country":"Germany"
  },
  {
    "id":315,
    "name":"Cupula del Reichstag",
    "description":"Hoy (previa reserva hecha ayer) pudimos subir a la cupula del parlamento.",
    "latitude":"5.251.862.340",
    "longitude":"1.337.619.780",
    "date":"28/03/2013 0:00",
    "point_order":320,
    "city_id":1,
    "city":"Berlin",
    "province_id":1,
    "province":"Berlin",
    "country_id":1,
    "country":"Germany"
  },
  {
    "id":314,
    "name":"Centro de concentracion sachsenhausen",
    "description":"Centro de concentracion nazi usado entre el 36 y 45. Luego de la caida nazi fue usado por los rusos luego de la ocupacion.",
    "latitude":"5.276.678.687",
    "longitude":"1.326.333.046",
    "date":"28/03/2013 0:00",
    "point_order":321,
    "city_id":95,
    "city":"Oranienburg",
    "province_id":54,
    "province":"Brandenburg",
    "country_id":1,
    "country":"Germany"
  },
  {
    "id":316,
    "name":"Museo del Pérgamo",
    "description":"Tiene el altar del pergamo, una reproducción del portal de Ishtar, la entrada del mercado de mileto y un piso de arte islámico",
    "latitude":"5.252.161.770",
    "longitude":"1.339.591.300",
    "date":"29/03/2013 0:00",
    "point_order":322,
    "city_id":1,
    "city":"Berlin",
    "province_id":1,
    "province":"Berlin",
    "country_id":1,
    "country":"Germany"
  },
  {
    "id":318,
    "name":"Altes Museum",
    "description":"Museo con una colección se antigüedades clásicas de arte y numismatica etrusca, romana y griega.",
    "latitude":"5.251.949.610",
    "longitude":"1.339.880.430",
    "date":"29/03/2013 0:00",
    "point_order":324,
    "city_id":1,
    "city":"Berlin",
    "province_id":1,
    "province":"Berlin",
    "country_id":1,
    "country":"Germany"
  },
  {
    "id":319,
    "name":"Topography of Terror",
    "description":"Exhibición de imágenes y documentos nazis.",
    "latitude":"5.250.678.500",
    "longitude":"1.338.362.160",
    "date":"29/03/2013 0:00",
    "point_order":325,
    "city_id":1,
    "city":"Berlin",
    "province_id":1,
    "province":"Berlin",
    "country_id":1,
    "country":"Germany"
  },
  {
    "id":320,
    "name":"Shopping KaDeWe",
    "description":"Supusimos que iba a estar abierto, pero los feriados (o por lo menos viernes santo cierra TODO).",
    "latitude":"5.250.405.740",
    "longitude":"1.333.612.030",
    "date":"29/03/2013 0:00",
    "point_order":326,
    "city_id":1,
    "city":"Berlin",
    "province_id":1,
    "province":"Berlin",
    "country_id":1,
    "country":"Germany"
  },
  {
    "id":55,
    "name":"Amsterdam Central",
    "description":"Llegamos a Amsterdam",
    "latitude":"5.237.916.211",
    "longitude":"490.037.441",
    "date":"30/03/2013 0:00",
    "point_order":55,
    "city_id":5,
    "city":"Amsterdam",
    "province_id":5,
    "province":"North Holland",
    "country_id":2,
    "country":"The Netherlands"
  },
  {
    "id":326,
    "name":"Bloemenmarkt",
    "description":"Mercado de flores de amsterdam. Venden vulvos de todo tipo de tulipanes. Aprovechamos que habia unos locales que venden quesos que tenian degustacion y dimos un par de pasadas a cada uno para el almuerzo.",
    "latitude":"5.236.679.541",
    "longitude":"489.228.487",
    "date":"30/03/2013 0:00",
    "point_order":332,
    "city_id":5,
    "city":"Amsterdam",
    "province_id":5,
    "province":"North Holland",
    "country_id":2,
    "country":"The Netherlands"
  },
  {
    "id":327,
    "name":"Museo Heineken Experience",
    "description":"La verdad no vale la pena pero te dan dos fichas para dos cervezas. Lo bueno es que encontramos MUCHAS fichas en el suelo!",
    "latitude":"5.235.785.200",
    "longitude":"489.158.500",
    "date":"30/03/2013 0:00",
    "point_order":333,
    "city_id":5,
    "city":"Amsterdam",
    "province_id":5,
    "province":"North Holland",
    "country_id":2,
    "country":"The Netherlands"
  },
  {
    "id":335,
    "name":"Hostel Orfeo",
    "description":"Lo mejorcito y mas barato que conseguimos a último momento",
    "latitude":"5.236.373.596",
    "longitude":"488.527.894",
    "date":"30/03/2013 0:00",
    "point_order":341,
    "city_id":5,
    "city":"Amsterdam",
    "province_id":5,
    "province":"North Holland",
    "country_id":2,
    "country":"The Netherlands"
  },
  {
    "id":328,
    "name":"Dam Square + City tour",
    "description":"Plaza frente al palacio real. Y de ahí un city tour.",
    "latitude":"5.237.304.420",
    "longitude":"489.324.500",
    "date":"31/03/2013 0:00",
    "point_order":334,
    "city_id":5,
    "city":"Amsterdam",
    "province_id":5,
    "province":"North Holland",
    "country_id":2,
    "country":"The Netherlands"
  },
  {
    "id":329,
    "name":"Beursplein",
    "description":"",
    "latitude":"5.237.419.970",
    "longitude":"489.548.620",
    "date":"31/03/2013 0:00",
    "point_order":335,
    "city_id":5,
    "city":"Amsterdam",
    "province_id":5,
    "province":"North Holland",
    "country_id":2,
    "country":"The Netherlands"
  },
  {
    "id":330,
    "name":"Waag",
    "description":"Este edificio pesaba la carga de los barcos al pasar por amsterdam para cobrarles un peaje. Cuando se mudo el puerto la ocuparon loa representantes de los sindocatos. Tambien se cumplian las condenas a pena de muerte en la plaza alrededor del edificio.",
    "latitude":"5.237.275.410",
    "longitude":"490.043.430",
    "date":"31/03/2013 0:00",
    "point_order":336,
    "city_id":5,
    "city":"Amsterdam",
    "province_id":5,
    "province":"North Holland",
    "country_id":2,
    "country":"The Netherlands"
  },
  {
    "id":331,
    "name":"Anne Frank House",
    "description":"Museo de la casa de Anne Frank. La familia Frank llego a holanda escapando de los nazis y se escondio detras de las bodegas de la fabrica de Otto Frank (el papa de Anne) por dos años cuando los nazis llegaron a holanda. No se sabe quien los denuncio y los alemanes los deportaron a auswitz donde murieron todos menos Otto de tifus. Al salir, una de las personas que trabajaba en su empresa le dio Otto y despues de un tiempo lo lee y al ver lo que habia escrito su hija y saber que su sueño era poder llegar a hacer una novela relatando lo que habian vivido logra a editar el libro del diario de Anne Frank.",
    "latitude":"5.237.517.280",
    "longitude":"488.393.740",
    "date":"01/04/2013 0:00",
    "point_order":337,
    "city_id":5,
    "city":"Amsterdam",
    "province_id":5,
    "province":"North Holland",
    "country_id":2,
    "country":"The Netherlands"
  },
  {
    "id":332,
    "name":"El molino - De Gooyer",
    "description":"El unico molino en la ciudad y accesible por turistas (o eso lei...) Esta en la otra punta de amsterdam, lejos del centro, pasando el zoo. Esta zona casi no hay turistas, muy recidencial y tranquila, digamos que otro amsterdam.  Abajo hay una cerveceria artesanal MUY buena.",
    "latitude":"5.236.675.030",
    "longitude":"492.636.530",
    "date":"01/04/2013 0:00",
    "point_order":338,
    "city_id":5,
    "city":"Amsterdam",
    "province_id":5,
    "province":"North Holland",
    "country_id":2,
    "country":"The Netherlands"
  },
  {
    "id":333,
    "name":"Rembrandtplein",
    "description":"Plaza con un monumento a Rembrandt",
    "latitude":"5.236.625.900",
    "longitude":"489.628.000",
    "date":"01/04/2013 0:00",
    "point_order":339,
    "city_id":5,
    "city":"Amsterdam",
    "province_id":5,
    "province":"North Holland",
    "country_id":2,
    "country":"The Netherlands"
  },
  {
    "id":336,
    "name":"Royal Palace of Amsterdam",
    "description":"Visita al palacio real, es increible el lujo ahi dentro. Paredes, pisos y techos de marol con detalles de bronce y oro. Arañas de oro y cristal. Muebles imperiales de la era de napoleon (cuando goberno holanda).",
    "latitude":"5.237.332.630",
    "longitude":"489.154.460",
    "date":"02/04/2013 0:00",
    "point_order":342,
    "city_id":5,
    "city":"Amsterdam",
    "province_id":5,
    "province":"North Holland",
    "country_id":2,
    "country":"The Netherlands"
  },
  {
    "id":337,
    "name":"Hortus Botanicus",
    "description":"Jardin botanico, lo vimos de afuera porque habia que pagar entrada y dado el clima no valia la pena ver plantas sin flores ni hojas...",
    "latitude":"5.236.700.550",
    "longitude":"490.789.740",
    "date":"02/04/2013 0:00",
    "point_order":343,
    "city_id":5,
    "city":"Amsterdam",
    "province_id":5,
    "province":"North Holland",
    "country_id":2,
    "country":"The Netherlands"
  },
  {
    "id":339,
    "name":"Magere Brug",
    "description":"Puente angosto, es un puetecito de madera que se levanta para dejar pasar los barcos que pasan",
    "latitude":"5.236.358.550",
    "longitude":"490.239.600",
    "date":"02/04/2013 0:00",
    "point_order":344,
    "city_id":5,
    "city":"Amsterdam",
    "province_id":5,
    "province":"North Holland",
    "country_id":2,
    "country":"The Netherlands"
  },
  {
    "id":338,
    "name":"Vondelpark",
    "description":"Bicicleteada por el parque. Enorme y muy lindo con varios lagos y barcitos.",
    "latitude":"5.235.852.830",
    "longitude":"486.993.800",
    "date":"02/04/2013 0:00",
    "point_order":345,
    "city_id":5,
    "city":"Amsterdam",
    "province_id":5,
    "province":"North Holland",
    "country_id":2,
    "country":"The Netherlands"
  },
  {
    "id":340,
    "name":"Molino Houtzaagmolen de Otter",
    "description":"Molino del 'asserradero de la nutria'",
    "latitude":"5.237.610.678",
    "longitude":"487.080.038",
    "date":"02/04/2013 0:00",
    "point_order":346,
    "city_id":5,
    "city":"Amsterdam",
    "province_id":5,
    "province":"North Holland",
    "country_id":2,
    "country":"The Netherlands"
  },
  {
    "id":341,
    "name":"Molino de Bloem",
    "description":"Molino con el que se fabricaba harina y aunque todavia funciona ahora solament aloja las oficinas de una empresa.",
    "latitude":"5.238.482.029",
    "longitude":"486.003.399",
    "date":"02/04/2013 0:00",
    "point_order":347,
    "city_id":5,
    "city":"Amsterdam",
    "province_id":5,
    "province":"North Holland",
    "country_id":2,
    "country":"The Netherlands"
  },
  {
    "id":342,
    "name":"Centrale Markthallen",
    "description":"El mercado central de amsterdam",
    "latitude":"5.237.939.870",
    "longitude":"486.468.200",
    "date":"02/04/2013 0:00",
    "point_order":348,
    "city_id":5,
    "city":"Amsterdam",
    "province_id":5,
    "province":"North Holland",
    "country_id":2,
    "country":"The Netherlands"
  },
  {
    "id":343,
    "name":"Molen de Gooyer Amsterdam",
    "description":"Y a la vuelta pasamos de nuevo por el molino a merendar unas birritas.",
    "latitude":"5.236.675.030",
    "longitude":"492.636.530",
    "date":"02/04/2013 0:00",
    "point_order":349,
    "city_id":5,
    "city":"Amsterdam",
    "province_id":5,
    "province":"North Holland",
    "country_id":2,
    "country":"The Netherlands"
  },
  {
    "id":344,
    "name":"Hostel Stayokay",
    "description":"",
    "latitude":"5.084.360.998",
    "longitude":"569.767.714",
    "date":"03/04/2013 0:00",
    "point_order":350,
    "city_id":99,
    "city":"Maastricht",
    "province_id":57,
    "province":"Limburg",
    "country_id":2,
    "country":"The Netherlands"
  },
  {
    "id":345,
    "name":"Tour en bici - mapa en mano",
    "description":"Alquilamos unas bicis en el hostel y recorrimos todo el centro en una tarde. Muy linda ciudad.",
    "latitude":"5.084.516.811",
    "longitude":"569.411.516",
    "date":"03/04/2013 0:00",
    "point_order":351,
    "city_id":99,
    "city":"Maastricht",
    "province_id":57,
    "province":"Limburg",
    "country_id":2,
    "country":"The Netherlands"
  },
  {
    "id":346,
    "name":"Saint John's Church",
    "description":"Subimos a la torre del campanario donde hay una vista de toda la ciudad.",
    "latitude":"5.084.834.540",
    "longitude":"568.758.540",
    "date":"03/04/2013 0:00",
    "point_order":352,
    "city_id":99,
    "city":"Maastricht",
    "province_id":57,
    "province":"Limburg",
    "country_id":2,
    "country":"The Netherlands"
  },
  {
    "id":347,
    "name":"City tour por brujas",
    "description":"Caminando recorrimos todo brujas en una tarde con mapa en mano.",
    "latitude":"5.121.083.650",
    "longitude":"322.486.920",
    "date":"04/04/2013 0:00",
    "point_order":353,
    "city_id":8,
    "city":"Brugge",
    "province_id":8,
    "province":"Vlaams Gewest",
    "country_id":3,
    "country":"Belgium"
  },
  {
    "id":348,
    "name":"Belfort",
    "description":"Subimos a la torre del campanario de la plaza principal con una vista panorámica de brujas.",
    "latitude":"5.120.820.750",
    "longitude":"322.488.430",
    "date":"04/04/2013 0:00",
    "point_order":354,
    "city_id":8,
    "city":"Brugge",
    "province_id":8,
    "province":"Vlaams Gewest",
    "country_id":3,
    "country":"Belgium"
  },
  {
    "id":349,
    "name":"Kruis Gate",
    "description":"Una de las 'puertas' de la muralla que cercaba brujas.",
    "latitude":"5.121.255.590",
    "longitude":"324.007.420",
    "date":"04/04/2013 0:00",
    "point_order":355,
    "city_id":8,
    "city":"Brugge",
    "province_id":8,
    "province":"Vlaams Gewest",
    "country_id":3,
    "country":"Belgium"
  },
  {
    "id":350,
    "name":"Molinos de brujas",
    "description":"",
    "latitude":"5.121.382.613",
    "longitude":"323.908.715",
    "date":"04/04/2013 0:00",
    "point_order":356,
    "city_id":8,
    "city":"Brugge",
    "province_id":8,
    "province":"Vlaams Gewest",
    "country_id":3,
    "country":"Belgium"
  },
  {
    "id":367,
    "name":"Bar De Kerlk",
    "description":"Un bar que solo sirve birras. Mas de 200 tipos distintos. Muy buen lugar para probar algunas locas como de cereza, coco o vino. A la noche siempre mucha gente local.",
    "latitude":"5.121.131.587",
    "longitude":"323.643.412",
    "date":"04/04/2013 0:00",
    "point_order":373,
    "city_id":8,
    "city":"Brugge",
    "province_id":8,
    "province":"Vlaams Gewest",
    "country_id":3,
    "country":"Belgium"
  },
  {
    "id":369,
    "name":"La plaza serrano de brujas",
    "description":"Llegamos por casualidad, a la vuelta de la plaza principal pero MUY escondido. Hay 3 o 4 barcitos pero a la noche se llena de gente. Se ponen con musica y esta bastante bueno para ir. De paso, pasear por la ciudad de noche que, para mi, es mas linda que de dia.",
    "latitude":"5.120.948.625",
    "longitude":"322.365.317",
    "date":"04/04/2013 0:00",
    "point_order":375,
    "city_id":8,
    "city":"Brugge",
    "province_id":8,
    "province":"Vlaams Gewest",
    "country_id":3,
    "country":"Belgium"
  },
  {
    "id":351,
    "name":"Castillo Gravensteen",
    "description":"Visitamos un castillo del siglo XII.",
    "latitude":"5.105.706.980",
    "longitude":"372.075.600",
    "date":"05/04/2013 0:00",
    "point_order":357,
    "city_id":82,
    "city":"Gent",
    "province_id":8,
    "province":"Vlaams Gewest",
    "country_id":3,
    "country":"Belgium"
  },
  {
    "id":352,
    "name":"City tour",
    "description":"Recorrimos el centro de Gent en una tarde mapa en mano. Recorrimos las 4 iglesias que estan en el centro... INMENSAS!",
    "latitude":"5.105.346.800",
    "longitude":"373.038.000",
    "date":"05/04/2013 0:00",
    "point_order":358,
    "city_id":82,
    "city":"Gent",
    "province_id":8,
    "province":"Vlaams Gewest",
    "country_id":3,
    "country":"Belgium"
  },
  {
    "id":358,
    "name":"Grand Place",
    "description":"Es el city hall de bruselas. Esta en frente a la plaza principal donde tambien se encuentra el museo de la ciudad. Es muy lindo de ver de noche porque todos los edificios se iluminan de colores que van cambiando.",
    "latitude":"5.084.649.560",
    "longitude":"435.275.650",
    "date":"06/04/2013 0:00",
    "point_order":364,
    "city_id":10,
    "city":"Brussels",
    "province_id":10,
    "province":"Brussels",
    "country_id":3,
    "country":"Belgium"
  },
  {
    "id":359,
    "name":"Manneken Pis",
    "description":"El nene haciendo pis. Una esquina, una fuente, una estatua de un nene meando. No tiene nada especial pero igualmente no podia perderme sacarle una foto a la fuente, y xq no descargar y relajarse un poco...",
    "latitude":"5.084.499.330",
    "longitude":"434.997.780",
    "date":"06/04/2013 0:00",
    "point_order":365,
    "city_id":100,
    "city":"Brussels",
    "province_id":10,
    "province":"Brussels",
    "country_id":3,
    "country":"Belgium"
  },
  {
    "id":360,
    "name":"Place de l'Albertine",
    "description":"Esta plaza es increible. Es enorme y con escaleras enormes. Mirando para el norte hay una vista increible del a ciudad y para el sur se esta a cuadras del palacio real y los museos.",
    "latitude":"5.084.441.400",
    "longitude":"435.538.340",
    "date":"06/04/2013 0:00",
    "point_order":366,
    "city_id":10,
    "city":"Brussels",
    "province_id":10,
    "province":"Brussels",
    "country_id":3,
    "country":"Belgium"
  },
  {
    "id":361,
    "name":"Musical Instrument Museum",
    "description":"Museo de instrumentos musicales. Tienen instrumentos de todo tipo desde un theremin hasta instrumentos aborigenes. ",
    "latitude":"5.084.273.830",
    "longitude":"435.921.340",
    "date":"06/04/2013 0:00",
    "point_order":367,
    "city_id":10,
    "city":"Brussels",
    "province_id":10,
    "province":"Brussels",
    "country_id":3,
    "country":"Belgium"
  },
  {
    "id":362,
    "name":"Zombie parade",
    "description":"Al salir del museo de la musica nos encontramos con una comioneta poniendo musica disfrazada con ataudes y atras mucha gentes disfrazada de zombie bailando y 'atacando' a los espectadores. No sabiamos si sacar fotos o salir corriendo por si se habia desatado la infeccion masiva jaja",
    "latitude":"5.084.273.830",
    "longitude":"435.921.340",
    "date":"06/04/2013 0:00",
    "point_order":368,
    "city_id":10,
    "city":"Brussels",
    "province_id":10,
    "province":"Brussels",
    "country_id":3,
    "country":"Belgium"
  },
  {
    "id":363,
    "name":"Bourse",
    "description":"El edificio de la bolsa de bruselas. Se junta siempre mucha gente en la escalinata de entrada del edificio.",
    "latitude":"5.084.806.800",
    "longitude":"434.942.700",
    "date":"06/04/2013 0:00",
    "point_order":369,
    "city_id":10,
    "city":"Brussels",
    "province_id":10,
    "province":"Brussels",
    "country_id":3,
    "country":"Belgium"
  },
  {
    "id":364,
    "name":"Justitiepaleis",
    "description":"",
    "latitude":"5.083.682.080",
    "longitude":"435.233.260",
    "date":"06/04/2013 0:00",
    "point_order":370,
    "city_id":10,
    "city":"Brussels",
    "province_id":10,
    "province":"Brussels",
    "country_id":3,
    "country":"Belgium"
  },
  {
    "id":365,
    "name":"Place du Petit Sablon",
    "description":"",
    "latitude":"5.083.954.810",
    "longitude":"435.662.010",
    "date":"06/04/2013 0:00",
    "point_order":371,
    "city_id":10,
    "city":"Brussels",
    "province_id":10,
    "province":"Brussels",
    "country_id":3,
    "country":"Belgium"
  },
  {
    "id":366,
    "name":"Royal Palace, Brussels",
    "description":"",
    "latitude":"5.084.194.310",
    "longitude":"436.226.850",
    "date":"06/04/2013 0:00",
    "point_order":372,
    "city_id":10,
    "city":"Brussels",
    "province_id":10,
    "province":"Brussels",
    "country_id":3,
    "country":"Belgium"
  },
  {
    "id":353,
    "name":"Basilique du Sacre-Coeur",
    "description":"Visitamos la basilica de Sacre Coeur, subimos al domo de la iglesia y bajamos a la cripta. La iglesa esta en la colina de Montmartre y tiene desde la base una vista impresionante de paris, una vez arriba es increible porque se ve TODO!",
    "latitude":"4.888.662.930",
    "longitude":"234.292.850",
    "date":"07/04/2013 0:00",
    "point_order":359,
    "city_id":11,
    "city":"Paris",
    "province_id":11,
    "province":"Île-de-France",
    "country_id":5,
    "country":"France"
  },
  {
    "id":354,
    "name":"Louvre Palace",
    "description":"Pasamos por el louvre con el city tour. Pasado de mañana vamos a visitarlo.",
    "latitude":"4.886.111.110",
    "longitude":"233.638.890",
    "date":"08/04/2013 0:00",
    "point_order":111,
    "city_id":11,
    "city":"Paris",
    "province_id":11,
    "province":"Île-de-France",
    "country_id":5,
    "country":"France"
  },
  {
    "id":110,
    "name":"Eiffel Tower",
    "description":"Visitamos la torre eiffel. Desde abajo es increible el tamaño que tiene y a medida que se va subiendo es increible los que es la construccion. Subimos las 2 primeras partes por escalera (670 escalones). En la primer parte hay un mirador y un restaurante, en la seguda otro mirador y el ascensor para subir a la puta. En la punta hay otro mirador (281 metros de altura) y se ve absolutamente todo. Es loco la prolijidad de los edificios ya que casi todo paris fue demolido y reedificado en la epoca de napoleon 3º (la epoca del segundo imperio) y todo se hizo siguiendo la misma linea.",
    "latitude":"4.885.827.800",
    "longitude":"229.425.400",
    "date":"08/04/2013 0:00",
    "point_order":360,
    "city_id":11,
    "city":"Paris",
    "province_id":11,
    "province":"Île-de-France",
    "country_id":5,
    "country":"France"
  },
  {
    "id":355,
    "name":"Notre Dame Cathedral",
    "description":"Arrancamos el dia pensando en ir a Versailles pero nos depertamos con lluvia, cambio de planes, fuimos a Nore Dame. Primero recorrimos la iglesia, bastante linda pero me gusta mas la de Lujan! Despues subimos al campanario para ver la vista desde ahi. Despues de subir al Sacre Coeur y la Torre Eiffel no es nada del otro mundo pero igualmente muy lindo. ",
    "latitude":"4.885.296.820",
    "longitude":"234.990.210",
    "date":"09/04/2013 0:00",
    "point_order":361,
    "city_id":11,
    "city":"Paris",
    "province_id":11,
    "province":"Île-de-France",
    "country_id":5,
    "country":"France"
  },
  {
    "id":356,
    "name":"Sainte Chapelle",
    "description":"Tambien fuimos a la Sainte Chapelle. Esta en el palacio de justicia, originalmente fue el palacio real y un rey mando a construir la capilla para guardar un trozo de la cruz y la corona de cristo. Tiempo despues esto se perdio en un incendio. Son increibles los vitraux que tiene en 3 de sus paredes casi completas. En la otra pared tiene una roseta de vitraux enorme. En todos cuenta libros de la biblia.",
    "latitude":"4.885.542.000",
    "longitude":"234.498.700",
    "date":"09/04/2013 0:00",
    "point_order":362,
    "city_id":11,
    "city":"Paris",
    "province_id":11,
    "province":"Île-de-France",
    "country_id":5,
    "country":"France"
  },
  {
    "id":357,
    "name":"Musée d'Orsay",
    "description":"Y despues visitamos el museo Orsay  de arte moderno. Entre todo lo que estaba expuesto habia unas pinturas de Van Gogh (estaba entre otras el autorretrato y noche estrellada). Lo malo es que llegamos medio tarde y no pudimos visitarlo entero.",
    "latitude":"4.885.996.140",
    "longitude":"232.656.140",
    "date":"09/04/2013 0:00",
    "point_order":363,
    "city_id":11,
    "city":"Paris",
    "province_id":11,
    "province":"Île-de-France",
    "country_id":5,
    "country":"France"
  },
  {
    "id":370,
    "name":"Louvre Palace",
    "description":"Volvimos al museo con la idea de visitarlo. Llegamos temprano y despues de hacer un rato de cola (x una entrada que en lugar de hacer 2 horas de cola se supone que entras en 10 min xq nadie conoce) sale un tipo y nos dice que el museo no va a abrir hasta las 14 (segun un tano de la cola habia cambiado hoy el director del museo pero no le entendimos bien). Aprovechamos para visitar el museo militar y volvimos mas tarde para enterarnos de que estan de huelga y no iba a abrir en todo el dia!",
    "latitude":"4.886.111.110",
    "longitude":"233.638.890",
    "date":"10/04/2013 0:00",
    "point_order":376,
    "city_id":11,
    "city":"Paris",
    "province_id":11,
    "province":"Île-de-France",
    "country_id":5,
    "country":"France"
  },
  {
    "id":371,
    "name":"Musée de l'Armée",
    "description":"Al no poder entrar al Louvre fuimos al museo de la armada. Dimos una vuelta por la exposicion de las dos guerras (1º y 2º guerra mundial) y era principalmente de uniformes. Despues visitamos la tumba de napoleon. En ese monumento esta la tumba de napoleon 1º y 2º.",
    "latitude":"4.885.709.660",
    "longitude":"231.260.630",
    "date":"10/04/2013 0:00",
    "point_order":377,
    "city_id":11,
    "city":"Paris",
    "province_id":11,
    "province":"Île-de-France",
    "country_id":5,
    "country":"France"
  },
  {
    "id":372,
    "name":"Arc de Triomphe",
    "description":"Despues pasamos por el arco del triunfo. No parecia tan grande pero es enorme. Subimos a la 'terraza' y hay una linda vista de todo paris.",
    "latitude":"4.887.383.110",
    "longitude":"229.502.720",
    "date":"10/04/2013 0:00",
    "point_order":378,
    "city_id":11,
    "city":"Paris",
    "province_id":11,
    "province":"Île-de-France",
    "country_id":5,
    "country":"France"
  },
  {
    "id":373,
    "name":"Opéra",
    "description":"Pasamos por la puerta de la Opera de Paris. Comparado con el resto de la arquitectura de paris esta muy ornamentado. Como casi todo, aprovechan la temporada baja para realizar mantenimiento asi que la entrada principal estaba tapada por andamios.",
    "latitude":"4.887.064.300",
    "longitude":"233.235.500",
    "date":"10/04/2013 0:00",
    "point_order":379,
    "city_id":11,
    "city":"Paris",
    "province_id":11,
    "province":"Île-de-France",
    "country_id":5,
    "country":"France"
  },
  {
    "id":374,
    "name":"Versailles",
    "description":"Visitamos el palacio de versalles, sus jardines, el gran trianon, el pequeño trianon y las casas estilo ingles que  mando a construir Maria Antonieta",
    "latitude":"4.880.140.800",
    "longitude":"213.012.200",
    "date":"11/04/2013 0:00",
    "point_order":380,
    "city_id":101,
    "city":"Versailles",
    "province_id":11,
    "province":"Île-de-France",
    "country_id":5,
    "country":"France"
  },
  {
    "id":375,
    "name":"Eiffel Tower de noche",
    "description":"Llegamos casi las 23 horas y sacamos unas fotos. A las 23 vimos el 'show' de flashes de la torre, no se si se hace a cada hora, que es impresionante1",
    "latitude":"4.885.822.220",
    "longitude":"229.450.000",
    "date":"11/04/2013 0:00",
    "point_order":381,
    "city_id":11,
    "city":"Paris",
    "province_id":11,
    "province":"Île-de-France",
    "country_id":5,
    "country":"France"
  },
  {
    "id":376,
    "name":"Louvre",
    "description":"La tercera es la vencida! Esta vez pudimos entrar y recorrerlo. La monna lisa no me parecio tan impactante como dicen, habia otras pinturas que me parecieron mejores. Cuando salimos del museo increiblemente habia salido el sol (primera vez desde que estamos en Paris. Un rato espues se largo a lloviznar. Mas tarde cuando llegamos al hostel se largo a granizar y despues sol de nuevo! Clima raro el de Paris en esta parte del año.",
    "latitude":"4.886.111.110",
    "longitude":"233.638.890",
    "date":"12/04/2013 0:00",
    "point_order":382,
    "city_id":11,
    "city":"Paris",
    "province_id":11,
    "province":"Île-de-France",
    "country_id":5,
    "country":"France"
  },
  {
    "id":377,
    "name":"Jardin du Luxembourg",
    "description":"Aprovechando que estaba lindo el dia pegamos una pasada por los jardines de luxemburgo. Un parque enorme detras del palacio de luxemburgo. Tiene canchas de tenis, un carrousel y una fuente enorme.",
    "latitude":"4.884.665.433",
    "longitude":"233.701.844",
    "date":"12/04/2013 0:00",
    "point_order":383,
    "city_id":11,
    "city":"Paris",
    "province_id":11,
    "province":"Île-de-France",
    "country_id":5,
    "country":"France"
  },
  {
    "id":379,
    "name":"Horse Guards",
    "description":"Ibamos a hacer el freetour y vemos mucha gente amontonada y la guardia real en caballos. Nos acercamos a ver que era y era el cambio de guardia.",
    "latitude":"5.150.474.246",
    "longitude":"-0.12785076",
    "date":"14/04/2013 0:00",
    "point_order":384,
    "city_id":12,
    "city":"London",
    "province_id":35,
    "province":"",
    "country_id":6,
    "country":"United Kingdom"
  },
  {
    "id":378,
    "name":"Buckingham Palace",
    "description":"Hicimos el freetour como en todas las ciudades y la primer parada fue el palacio real y pudimos ver el cambio de guardia",
    "latitude":"5.150.136.400",
    "longitude":"-0.14189000",
    "date":"14/04/2013 0:00",
    "point_order":385,
    "city_id":12,
    "city":"London",
    "province_id":12,
    "province":"England",
    "country_id":6,
    "country":"United Kingdom"
  },
  {
    "id":383,
    "name":"St James's Palace",
    "description":"Despues del palacio real pasamos por el palacio de St James. Aca es donde vive la familia real (en el de buckingham solo vive la reina). Aca terminamos de ver el cambio de guardia.",
    "latitude":"5.150.473.680",
    "longitude":"-0.13716240",
    "date":"14/04/2013 0:00",
    "point_order":386,
    "city_id":12,
    "city":"London",
    "province_id":12,
    "province":"England",
    "country_id":6,
    "country":"United Kingdom"
  },
  {
    "id":380,
    "name":"Westminster",
    "description":"La imagen conocida de Londres, el parlamento, el big ben, la abadia de westminster.",
    "latitude":"5.150.070.460",
    "longitude":"-0.12457480",
    "date":"14/04/2013 0:00",
    "point_order":387,
    "city_id":12,
    "city":"London",
    "province_id":12,
    "province":"England",
    "country_id":6,
    "country":"United Kingdom"
  },
  {
    "id":381,
    "name":"Hyde Park",
    "description":"Un parque gigante (dijo el guia que del tamaño de monaco). Con una laguna enorme. En este parque esta el monumento a Lady Di.",
    "latitude":"5.150.743.100",
    "longitude":"-0.16570800",
    "date":"14/04/2013 0:00",
    "point_order":388,
    "city_id":12,
    "city":"London",
    "province_id":12,
    "province":"England",
    "country_id":6,
    "country":"United Kingdom"
  },
  {
    "id":382,
    "name":"Piccadilly Circus",
    "description":"Dando una vuelta para conocer un poco fuimos desde el hide park todo por oxford street y despues doblamos para picadilly circus. Dicen que es el punto de encuentro de los locales para despues salir a cualquier lado. Lleno de negocios, esta lleno de pantallas de led al estilo time square.",
    "latitude":"5.151.005.000",
    "longitude":"-0.13377000",
    "date":"14/04/2013 0:00",
    "point_order":389,
    "city_id":12,
    "city":"London",
    "province_id":35,
    "province":"",
    "country_id":6,
    "country":"United Kingdom"
  },
  {
    "id":384,
    "name":"St. James's Park",
    "description":"Un parque que originalmente era solo para la aristocracia de londres pero despues fue abierto al pueblo. Los rusos le regalaron a la corona inglesa una bandada de pelicanos que aun hoy sigue estando en el lago del parque.",
    "latitude":"5.150.252.538",
    "longitude":"-0.13220671",
    "date":"14/04/2013 0:00",
    "point_order":390,
    "city_id":12,
    "city":"London",
    "province_id":35,
    "province":"",
    "country_id":6,
    "country":"United Kingdom"
  },
  {
    "id":385,
    "name":"Piccadilly Circus de noche",
    "description":"Pasamos de nuevo a la noche buscando algun lugar para salir. Un bar que nos recomendaron estaba VACIO!!! El resto de los bares cerrados y lo que estaba abierto eran stripclubs o boliches pedorros de entre 7 y 10 libras (70 y 100 pesos...) conclucion, conocimos picadilly circus de noche y de vuelta al hostel.",
    "latitude":"5.151.005.000",
    "longitude":"-0.13377000",
    "date":"14/04/2013 0:00",
    "point_order":391,
    "city_id":12,
    "city":"London",
    "province_id":35,
    "province":"",
    "country_id":6,
    "country":"United Kingdom"
  },
  {
    "id":421,
    "name":"St Paul's Cathedral",
    "description":"Visitamos la iglesia de San Pablo. Aca fue donde se hizo el funeral de margaret thatcher",
    "latitude":"5.151.367.920",
    "longitude":"-0.09956010",
    "date":"14/04/2013 0:00",
    "point_order":427,
    "city_id":12,
    "city":"London",
    "province_id":12,
    "province":"England",
    "country_id":6,
    "country":"United Kingdom"
  },
  {
    "id":386,
    "name":"Tower Bridge",
    "description":"",
    "latitude":"5.150.555.050",
    "longitude":"-0.07543440",
    "date":"15/04/2013 0:00",
    "point_order":392,
    "city_id":15,
    "city":"London",
    "province_id":35,
    "province":"",
    "country_id":6,
    "country":"United Kingdom"
  },
  {
    "id":387,
    "name":"Regent's Park",
    "description":"Llendo a abbey rode despues del london bridge (caminando) pasamos por este parque. Enorme y muy lindo. En una parte con unas fuentes zarpadas y en otra lleno de canchas de football y un lago.",
    "latitude":"5.152.551.340",
    "longitude":"-0.14814380",
    "date":"15/04/2013 0:00",
    "point_order":393,
    "city_id":12,
    "city":"London",
    "province_id":12,
    "province":"England",
    "country_id":6,
    "country":"United Kingdom"
  },
  {
    "id":388,
    "name":"Abbey Road",
    "description":"Como no podia ser de otra forma, la foto en abbey road.",
    "latitude":"5.153.204.740",
    "longitude":"-0.17736094",
    "date":"15/04/2013 0:00",
    "point_order":394,
    "city_id":12,
    "city":"London",
    "province_id":35,
    "province":"",
    "country_id":6,
    "country":"United Kingdom"
  },
  {
    "id":389,
    "name":"La casa de Sherlock Holmes",
    "description":"Y pasamos por la casa de Sherlock Holmes. No entraos al museo xq era carisimo por ser simplemente una escenografia pero pasamos por el 'shop' y tenian cosas muy originales.",
    "latitude":"5.152.381.380",
    "longitude":"-0.15844760",
    "date":"15/04/2013 0:00",
    "point_order":395,
    "city_id":12,
    "city":"London",
    "province_id":35,
    "province":"",
    "country_id":6,
    "country":"United Kingdom"
  },
  {
    "id":390,
    "name":"The British Museum",
    "description":"Arrancamos visitando el museo britanico con toda su coleccion de cosas robadas por el mundo, particularmente Egipto. Es increible la cantidad de momias que hay ahi!",
    "latitude":"5.151.885.600",
    "longitude":"-0.12633710",
    "date":"16/04/2013 0:00",
    "point_order":396,
    "city_id":12,
    "city":"London",
    "province_id":12,
    "province":"England",
    "country_id":6,
    "country":"United Kingdom"
  },
  {
    "id":391,
    "name":"Camden Lock Market",
    "description":"Despues dimos un recorrido por el barrio de Camden y pasamos por el mercado. Es enorme ese mercado, venden ropa, musica, artesanias y un poco de todo lo demas. Hay comida de todas las etnias.",
    "latitude":"5.154.132.780",
    "longitude":"-0.14602200",
    "date":"16/04/2013 0:00",
    "point_order":397,
    "city_id":12,
    "city":"London",
    "province_id":35,
    "province":"",
    "country_id":6,
    "country":"United Kingdom"
  },
  {
    "id":392,
    "name":"Banksy vs Robbo",
    "description":"Caminando por el canal que pasa al lado del mercado llegamos por casualidad al famoso graffiti de la pelea entre Banksy y Robbo. Esta en un rincon debajo de un puente.",
    "latitude":"5.154.096.747",
    "longitude":"-0.14040009",
    "date":"16/04/2013 0:00",
    "point_order":398,
    "city_id":12,
    "city":"London",
    "province_id":35,
    "province":"",
    "country_id":6,
    "country":"United Kingdom"
  },
  {
    "id":393,
    "name":"Funeral de Margaret Thatcher",
    "description":"El funeral fue en la catedral que esta a la vuelta del hostel asi que despues de desayunar pasamos para ver. Muchisima gente amontonada en las veredas y por la calle un desfile de policias, militares y guardia real con sus bandas. Algo que no nos podiamos perder, es como minimo curioso.",
    "latitude":"5.151.367.920",
    "longitude":"-0.09956010",
    "date":"17/04/2013 0:00",
    "point_order":399,
    "city_id":12,
    "city":"London",
    "province_id":12,
    "province":"England",
    "country_id":6,
    "country":"United Kingdom"
  },
  {
    "id":394,
    "name":"Natural History Museum",
    "description":"Recorrimos un museo de historia natural. Nada del otro mundo. Muchos dinosaurios y bastante interactivo para los nenes.",
    "latitude":"5.149.637.391",
    "longitude":"-0.17582417",
    "date":"17/04/2013 0:00",
    "point_order":400,
    "city_id":12,
    "city":"London",
    "province_id":35,
    "province":"",
    "country_id":6,
    "country":"United Kingdom"
  },
  {
    "id":396,
    "name":"Science Museum",
    "description":"Museo de ciencias. Tiene una exposicion muy copada con un poco de todo. Tiene una exposicion media rara de google, una como la del museo 'prohibido no tocar' y el resto me parecieron malaa.",
    "latitude":"5.149.780.950",
    "longitude":"-0.17452350",
    "date":"17/04/2013 0:00",
    "point_order":401,
    "city_id":12,
    "city":"London",
    "province_id":35,
    "province":"",
    "country_id":6,
    "country":"United Kingdom"
  },
  {
    "id":395,
    "name":"Nottin Hill",
    "description":"Pegamos una recorrida por Nottin Hill. Muy lindo barrio, lleno de casitas de dos pisos y autos caros, negocios con mucha onda. Encontramos la puertita azul y la libreria de la pelicula y despues paramos a tomar algo ",
    "latitude":"5.151.671.460",
    "longitude":"-0.20658550",
    "date":"17/04/2013 0:00",
    "point_order":402,
    "city_id":12,
    "city":"London",
    "province_id":35,
    "province":"",
    "country_id":6,
    "country":"United Kingdom"
  },
  {
    "id":397,
    "name":"The Red Lion",
    "description":"Y despues fuimos a un barcito en las afueras de Londres (en Ealing). Cene una mega hamburguesa (con chili con carne, queso, lechuga y panceta) con papas y tome una honney dew riquisima.",
    "latitude":"5.150.803.420",
    "longitude":"-0.30497330",
    "date":"17/04/2013 0:00",
    "point_order":403,
    "city_id":12,
    "city":"London",
    "province_id":35,
    "province":"",
    "country_id":6,
    "country":"United Kingdom"
  },
  {
    "id":399,
    "name":"Tower Bridge de noche",
    "description":"",
    "latitude":"5.150.570.340",
    "longitude":"-0.07527110",
    "date":"17/04/2013 0:00",
    "point_order":405,
    "city_id":15,
    "city":"London",
    "province_id":35,
    "province":"",
    "country_id":6,
    "country":"United Kingdom"
  },
  {
    "id":398,
    "name":"The British Library",
    "description":"Tiene una muestra interesante don libros y manuscritos antiguos. Tiene cartas de darwin, libros con correcciones de shakespeare, manuscritos de da vinci y miguelangelo y unos borradores de canciones de los beatles.",
    "latitude":"5.152.889.960",
    "longitude":"-0.12748620",
    "date":"18/04/2013 0:00",
    "point_order":404,
    "city_id":12,
    "city":"London",
    "province_id":12,
    "province":"England",
    "country_id":6,
    "country":"United Kingdom"
  },
  {
    "id":400,
    "name":"Ye Olde Cheshire Cheese",
    "description":"Un bar reconstruido en el 1600. Es enorme y muy pintoresco. Con bar en el sótano, pb y 3 pisos más.  Birras tiradas de todos los gustos. ",
    "latitude":"5.151.443.160",
    "longitude":"-0.10708560",
    "date":"18/04/2013 0:00",
    "point_order":406,
    "city_id":12,
    "city":"London",
    "province_id":35,
    "province":"",
    "country_id":6,
    "country":"United Kingdom"
  },
  {
    "id":401,
    "name":"Liverpool Women's NHS Foundation Trust",
    "description":"Lugar donde nacio John. Era el London Maternity Hospital.",
    "latitude":"5.339.859.500",
    "longitude":"-295.999.000",
    "date":"19/04/2013 0:00",
    "point_order":407,
    "city_id":13,
    "city":"Liverpool",
    "province_id":35,
    "province":"",
    "country_id":6,
    "country":"United Kingdom"
  },
  {
    "id":402,
    "name":"Liverpool Institute for Performing Arts (LIPA)",
    "description":"Paul estudio en este instituto de musica mientras John estudiaba en el instituto de arte al lado. Hoy el LIPA pertenece a Paul y compro el instituto de arte de al lado para expandir el LIPA (Estaba abandonado). Segun nos contaron todos los años va para entregar a los graduados el diploma",
    "latitude":"5.339.968.980",
    "longitude":"-297.199.730",
    "date":"19/04/2013 0:00",
    "point_order":408,
    "city_id":13,
    "city":"Liverpool",
    "province_id":12,
    "province":"England",
    "country_id":6,
    "country":"United Kingdom"
  },
  {
    "id":403,
    "name":"Ringo Star Birthplace",
    "description":"Casa donde nacio y crecio ringo star. Todo ese barrio esta abandonado y esta por demolerse para construir nuevas viviendas por el gobierno aunque algunas casas (incluida esta) solo se van a remodelar.",
    "latitude":"5.338.870.580",
    "longitude":"-295.968.710",
    "date":"19/04/2013 0:00",
    "point_order":409,
    "city_id":13,
    "city":"Liverpool",
    "province_id":12,
    "province":"England",
    "country_id":6,
    "country":"United Kingdom"
  },
  {
    "id":404,
    "name":"El edificio de Sentimental Journey",
    "description":"Este edificio es el que uso ringo para la tapa de ese disco.",
    "latitude":"5.338.759.649",
    "longitude":"-296.043.992",
    "date":"19/04/2013 0:00",
    "point_order":410,
    "city_id":13,
    "city":"Liverpool",
    "province_id":12,
    "province":"England",
    "country_id":6,
    "country":"United Kingdom"
  },
  {
    "id":405,
    "name":"Penny Lane",
    "description":"Pasamos por Penny Lane. Una calle de liverpool pero tambien llaman asi a una parte de la ciudad (casi se podria decir un barrio) por donde paul pasaba siempre y sobre esta zona habla la cancion.",
    "latitude":"5.338.474.315",
    "longitude":"-292.373.103",
    "date":"19/04/2013 0:00",
    "point_order":411,
    "city_id":13,
    "city":"Liverpool",
    "province_id":35,
    "province":"",
    "country_id":6,
    "country":"United Kingdom"
  },
  {
    "id":406,
    "name":"Penny Lane Barbershop",
    "description":"... o donde se cortaban el pelo. De esta peluqueria habla la cancion",
    "latitude":"5.338.913.270",
    "longitude":"-291.510.505",
    "date":"19/04/2013 0:00",
    "point_order":412,
    "city_id":13,
    "city":"Liverpool",
    "province_id":58,
    "province":"Kentucky",
    "country_id":6,
    "country":"United Kingdom"
  },
  {
    "id":407,
    "name":"La casa donde crecio Paul",
    "description":"La casa donde crecio hasta que no pudieron vivir mas ahi por el acoso de l@s fans y se mudaron del otro lado del rio.",
    "latitude":"5.336.955.440",
    "longitude":"-289.772.570",
    "date":"19/04/2013 0:00",
    "point_order":413,
    "city_id":13,
    "city":"Liverpool",
    "province_id":35,
    "province":"",
    "country_id":6,
    "country":"United Kingdom"
  },
  {
    "id":408,
    "name":"Strawberry Field",
    "description":"Era un orfanato a la vueta de donde crecio John, hoy es solo la puerta y un terreno abandonado. Todos los dias se escaba, saltaba la pared y se iba a jugar al orfanato. Dicen que Yoko tiro ahi las cenizas porque John tenia ahi los mejores recuerdos.",
    "latitude":"5.338.098.330",
    "longitude":"-288.044.560",
    "date":"19/04/2013 0:00",
    "point_order":414,
    "city_id":13,
    "city":"Liverpool",
    "province_id":12,
    "province":"England",
    "country_id":6,
    "country":"United Kingdom"
  },
  {
    "id":409,
    "name":"La casa donde crecio John",
    "description":"Esta era la casa de la tia de john.",
    "latitude":"5.337.778.910",
    "longitude":"-288.272.040",
    "date":"19/04/2013 0:00",
    "point_order":415,
    "city_id":13,
    "city":"Liverpool",
    "province_id":35,
    "province":"",
    "country_id":6,
    "country":"United Kingdom"
  },
  {
    "id":410,
    "name":"La tumba de Eleanor Rigby",
    "description":"En el cementerio de la iglesia de San Pedro esta la tumba de la familia Rigby. Dicen que de ahi saco los nombres Paul aunque el dice que son todos invetados",
    "latitude":"5.337.609.121",
    "longitude":"-286.914.289",
    "date":"19/04/2013 0:00",
    "point_order":416,
    "city_id":13,
    "city":"Liverpool",
    "province_id":12,
    "province":"England",
    "country_id":6,
    "country":"United Kingdom"
  },
  {
    "id":411,
    "name":"Lugar donde se conocieron John y Paul",
    "description":"",
    "latitude":"5.337.603.413",
    "longitude":"-286.803.062",
    "date":"19/04/2013 0:00",
    "point_order":417,
    "city_id":13,
    "city":"Liverpool",
    "province_id":35,
    "province":"",
    "country_id":6,
    "country":"United Kingdom"
  },
  {
    "id":412,
    "name":"La casa donde crecio George",
    "description":"",
    "latitude":"5.339.900.310",
    "longitude":"-291.663.620",
    "date":"19/04/2013 0:00",
    "point_order":418,
    "city_id":13,
    "city":"Liverpool",
    "province_id":35,
    "province":"",
    "country_id":6,
    "country":"United Kingdom"
  },
  {
    "id":413,
    "name":"The Cavern Pub",
    "description":"En su momento, The Cavern no tenia habilitacion para vender alcohol por lo que en frente abrieron este pub donde si podian. En la puerta esta la estatua de Lennon.",
    "latitude":"5.340.625.367",
    "longitude":"-298.815.151",
    "date":"19/04/2013 0:00",
    "point_order":419,
    "city_id":13,
    "city":"Liverpool",
    "province_id":35,
    "province":"",
    "country_id":6,
    "country":"United Kingdom"
  },
  {
    "id":414,
    "name":"The Cavern Club",
    "description":"que mas se puede decir...",
    "latitude":"5.340.635.121",
    "longitude":"-298.797.180",
    "date":"19/04/2013 0:00",
    "point_order":420,
    "city_id":13,
    "city":"Liverpool",
    "province_id":35,
    "province":"",
    "country_id":6,
    "country":"United Kingdom"
  },
  {
    "id":415,
    "name":"Albert Dock",
    "description":"Un dock donde antiguamente descargaban los barcos y actualmente esta lleno de locales y restaurantes.",
    "latitude":"5.340.030.000",
    "longitude":"-299.270.000",
    "date":"20/04/2013 0:00",
    "point_order":421,
    "city_id":13,
    "city":"Liverpool",
    "province_id":35,
    "province":"",
    "country_id":6,
    "country":"United Kingdom"
  },
  {
    "id":416,
    "name":"Barrio Chino",
    "description":"Pasamos y estaba todo cerrado. Solo habia restaurantes chinos!",
    "latitude":"5.340.020.343",
    "longitude":"-297.757.668",
    "date":"20/04/2013 0:00",
    "point_order":422,
    "city_id":13,
    "city":"Liverpool",
    "province_id":12,
    "province":"England",
    "country_id":6,
    "country":"United Kingdom"
  },
  {
    "id":417,
    "name":"Liverpool Cathedral",
    "description":"La iglesa es enorme y pudimos subir a la torre del campanario. De ahi se llega a ver una planta de energia eolica y una nuclear.",
    "latitude":"5.339.739.570",
    "longitude":"-297.316.410",
    "date":"20/04/2013 0:00",
    "point_order":423,
    "city_id":13,
    "city":"Liverpool",
    "province_id":12,
    "province":"England",
    "country_id":6,
    "country":"United Kingdom"
  },
  {
    "id":418,
    "name":"Liverpool Metropolitan Cathedral",
    "description":"La catedral catolica de liverpool.",
    "latitude":"5.340.452.390",
    "longitude":"-296.887.310",
    "date":"20/04/2013 0:00",
    "point_order":424,
    "city_id":13,
    "city":"Liverpool",
    "province_id":35,
    "province":"",
    "country_id":6,
    "country":"United Kingdom"
  },
  {
    "id":419,
    "name":"Edgware",
    "description":"Nos tomamos un tren a las afueras de Londres y nos bajamos en Egware, ultia estacion de la linea northern. Un pueblo chiquito sin mucho para ver. Algunos barrios de mucha plata. Vimos ferraris, jaguars y lanborginis... ",
    "latitude":"5.161.082.151",
    "longitude":"-0.28139591",
    "date":"21/04/2013 0:00",
    "point_order":425,
    "city_id":104,
    "city":"Barnet",
    "province_id":12,
    "province":"England",
    "country_id":6,
    "country":"United Kingdom"
  },
  {
    "id":420,
    "name":"Elstree",
    "description":"Empezamos a caminar por high street hasta que llegamos a esta laguna en Elstree. ",
    "latitude":"5.164.789.679",
    "longitude":"-0.31166842",
    "date":"21/04/2013 0:00",
    "point_order":426,
    "city_id":105,
    "city":"Elstree",
    "province_id":35,
    "province":"",
    "country_id":6,
    "country":"United Kingdom"
  },
  {
    "id":422,
    "name":"Big Ben de noche",
    "description":"Y por ultimo visitamos el palacio de westminster de noche",
    "latitude":"5.150.070.460",
    "longitude":"-0.12457480",
    "date":"21/04/2013 0:00",
    "point_order":428,
    "city_id":12,
    "city":"London",
    "province_id":12,
    "province":"England",
    "country_id":6,
    "country":"United Kingdom"
  },
  {
    "id":423,
    "name":"Bastille",
    "description":"Monumento a la bastilla. Pasamos mientras haciamos tiempo para tomar el tren a madrid",
    "latitude":"4.885.308.200",
    "longitude":"236.900.200",
    "date":"22/04/2013 0:00",
    "point_order":429,
    "city_id":11,
    "city":"Paris",
    "province_id":11,
    "province":"Île-de-France",
    "country_id":5,
    "country":"France"
  },
  {
    "id":424,
    "name":"Plaza Mayor",
    "description":"Llegamos a madrid y salimos a dar una vuelta. Enganchamos el free tour que venimos haciendo en todas las ciudades.",
    "latitude":"4.041.536.400",
    "longitude":"-370.739.800",
    "date":"23/04/2013 0:00",
    "point_order":430,
    "city_id":14,
    "city":"Madrid",
    "province_id":13,
    "province":"Community of Madrid",
    "country_id":7,
    "country":"Spain"
  },
  {
    "id":425,
    "name":"Museo Nacional del Prado",
    "description":"Despues de las 18 hay entrada gratuita para residentes europeos e iberoamericanos asi que aprovechamos para recorrerlo.",
    "latitude":"4.041.378.170",
    "longitude":"-369.228.610",
    "date":"23/04/2013 0:00",
    "point_order":431,
    "city_id":14,
    "city":"Madrid",
    "province_id":13,
    "province":"Community of Madrid",
    "country_id":7,
    "country":"Spain"
  },
  {
    "id":426,
    "name":"Puerta de Alcalá",
    "description":"Aprovechamos que estabamos cerca cuando fuimos al museo y pasamos a ver la puerta de alcala. Uno de los pasos por la muralla que protejia la ciudad de madrid.",
    "latitude":"4.042.002.260",
    "longitude":"-368.873.480",
    "date":"23/04/2013 0:00",
    "point_order":432,
    "city_id":14,
    "city":"Madrid",
    "province_id":13,
    "province":"Community of Madrid",
    "country_id":7,
    "country":"Spain"
  },
  {
    "id":427,
    "name":"Plaza de Cibeles",
    "description":"",
    "latitude":"4.041.916.670",
    "longitude":"-369.305.560",
    "date":"23/04/2013 0:00",
    "point_order":433,
    "city_id":14,
    "city":"Madrid",
    "province_id":13,
    "province":"Community of Madrid",
    "country_id":7,
    "country":"Spain"
  },
  {
    "id":428,
    "name":"Almudena Cathedral",
    "description":"Visitaos la catedral de Almudema. Esta a la vuelta del palacio real.",
    "latitude":"4.041.608.750",
    "longitude":"-371.426.970",
    "date":"24/04/2013 0:00",
    "point_order":434,
    "city_id":14,
    "city":"Madrid",
    "province_id":13,
    "province":"Community of Madrid",
    "country_id":7,
    "country":"Spain"
  },
  {
    "id":429,
    "name":"Cambio de guardia en el Palacio Real",
    "description":"Vimos el cambio de guardia. Lo hacen los miercoles cada media hora. Es más un show que algo serio pero igual esta bueno. Despues el primer miercoles de cada mes hacen el cambio de guarda tradicional.",
    "latitude":"4.041.827.356",
    "longitude":"-371.336.786",
    "date":"24/04/2013 0:00",
    "point_order":435,
    "city_id":14,
    "city":"Madrid",
    "province_id":13,
    "province":"Community of Madrid",
    "country_id":7,
    "country":"Spain"
  },
  {
    "id":430,
    "name":"Temple of Debod",
    "description":"Este es un templo que le regalaron los egipcios a los españoles en agradecimiento ya que gracias a los españoles se salvo otro de los templos xq queria hacer una represa donde estaba.",
    "latitude":"4.042.420.940",
    "longitude":"-371.757.880",
    "date":"24/04/2013 0:00",
    "point_order":436,
    "city_id":14,
    "city":"Madrid",
    "province_id":13,
    "province":"Community of Madrid",
    "country_id":7,
    "country":"Spain"
  },
  {
    "id":431,
    "name":"Arco de San Vicente",
    "description":"Era la puerta para pasar por el puente del rey, la puerta del rey y llegar al camino que iba a la casa de campo.",
    "latitude":"4.042.040.460",
    "longitude":"-372.064.780",
    "date":"24/04/2013 0:00",
    "point_order":437,
    "city_id":14,
    "city":"Madrid",
    "province_id":13,
    "province":"Community of Madrid",
    "country_id":7,
    "country":"Spain"
  },
  {
    "id":432,
    "name":"Casa de Campo",
    "description":"Caminamos por el parque que va a la casa de campo pero llegamos hasta este lago y volvimos para no perder tiempo y poder seguir recorriendo la ciudad. Al lado de la roseleda hay un teleferico que va directo a la casa de campo.",
    "latitude":"4.041.872.387",
    "longitude":"-373.166.084",
    "date":"24/04/2013 0:00",
    "point_order":438,
    "city_id":14,
    "city":"Madrid",
    "province_id":13,
    "province":"Community of Madrid",
    "country_id":7,
    "country":"Spain"
  },
  {
    "id":433,
    "name":"Parque del Retiro",
    "description":"Un parque inmenso con dos palacios dentro: el de cristal y el de velazques.",
    "latitude":"4.041.542.350",
    "longitude":"-368.423.580",
    "date":"24/04/2013 0:00",
    "point_order":439,
    "city_id":14,
    "city":"Madrid",
    "province_id":13,
    "province":"Community of Madrid",
    "country_id":7,
    "country":"Spain"
  },
  {
    "id":434,
    "name":"Palacio de Cristal",
    "description":"Un palacio hecho totalmente de cristal.",
    "latitude":"4.041.361.320",
    "longitude":"-368.204.930",
    "date":"24/04/2013 0:00",
    "point_order":440,
    "city_id":14,
    "city":"Madrid",
    "province_id":13,
    "province":"Community of Madrid",
    "country_id":7,
    "country":"Spain"
  },
  {
    "id":435,
    "name":"Palacio de Velázquez",
    "description":"Aca hacen exposiciones. En teoria deberia haber estado abierto pero no fue el caso.",
    "latitude":"4.041.519.000",
    "longitude":"-368.198.900",
    "date":"24/04/2013 0:00",
    "point_order":441,
    "city_id":14,
    "city":"Madrid",
    "province_id":13,
    "province":"Community of Madrid",
    "country_id":7,
    "country":"Spain"
  },
  {
    "id":436,
    "name":"Royal Palace of Madrid",
    "description":"Visitamos el palacio real. Despues de las 17 se puede entrar gratis como en el prado asi que aprovechamos de nuevo.",
    "latitude":"4.041.795.500",
    "longitude":"-371.431.200",
    "date":"24/04/2013 0:00",
    "point_order":442,
    "city_id":14,
    "city":"Madrid",
    "province_id":13,
    "province":"Community of Madrid",
    "country_id":7,
    "country":"Spain"
  },
  {
    "id":437,
    "name":"San Francisco el Grande Basilica",
    "description":"Pasamos por enfrente xq estaba cerrada.",
    "latitude":"4.041.045.140",
    "longitude":"-371.469.510",
    "date":"24/04/2013 0:00",
    "point_order":443,
    "city_id":14,
    "city":"Madrid",
    "province_id":13,
    "province":"Community of Madrid",
    "country_id":7,
    "country":"Spain"
  },
  {
    "id":438,
    "name":"Puerta de Toledo",
    "description":"Otra de las puertas por donde pasaba la muralla.",
    "latitude":"4.040.660.301",
    "longitude":"-371.171.639",
    "date":"24/04/2013 0:00",
    "point_order":444,
    "city_id":14,
    "city":"Madrid",
    "province_id":13,
    "province":"Community of Madrid",
    "country_id":7,
    "country":"Spain"
  },
  {
    "id":446,
    "name":"Toledo",
    "description":"Una ciudad chica, amurallada, con calles chicas y callejones. MUY linda para caminarla toda.",
    "latitude":"3.986.283.160",
    "longitude":"-402.732.310",
    "date":"25/04/2013 0:00",
    "point_order":452,
    "city_id":106,
    "city":"Toledo",
    "province_id":59,
    "province":"Castile-La Mancha",
    "country_id":7,
    "country":"Spain"
  },
  {
    "id":453,
    "name":"Cathedral of Toledo",
    "description":"",
    "latitude":"3.985.714.160",
    "longitude":"-402.362.470",
    "date":"25/04/2013 0:00",
    "point_order":460,
    "city_id":106,
    "city":"Toledo",
    "province_id":59,
    "province":"Castile-La Mancha",
    "country_id":7,
    "country":"Spain"
  },
  {
    "id":455,
    "name":"Plaza Zocodover",
    "description":"En esta plaza hay varios lugares para comer, unos puestos como una feria q venden libros y aca se centraliza un poco el turismo, siempre esta repleta de gente.",
    "latitude":"3.985.962.800",
    "longitude":"-402.154.630",
    "date":"25/04/2013 0:00",
    "point_order":462,
    "city_id":106,
    "city":"Toledo",
    "province_id":59,
    "province":"Castile-La Mancha",
    "country_id":7,
    "country":"Spain"
  },
  {
    "id":467,
    "name":"Plaza de toros",
    "description":"",
    "latitude":"3.986.727.849",
    "longitude":"-402.337.489",
    "date":"25/04/2013 0:00",
    "point_order":474,
    "city_id":106,
    "city":"Toledo",
    "province_id":59,
    "province":"Castile-La Mancha",
    "country_id":7,
    "country":"Spain"
  },
  {
    "id":468,
    "name":"Circo Romano",
    "description":"",
    "latitude":"3.986.430.700",
    "longitude":"-402.915.300",
    "date":"25/04/2013 0:00",
    "point_order":475,
    "city_id":106,
    "city":"Toledo",
    "province_id":59,
    "province":"Castile-La Mancha",
    "country_id":7,
    "country":"Spain"
  },
  {
    "id":447,
    "name":"La Sagrada Familia",
    "description":"Iglesia hecha por Gaudi. No entramos todavia a visitarla pero dicen que es muy linda por dentro",
    "latitude":"4.140.357.070",
    "longitude":"217.447.220",
    "date":"26/04/2013 0:00",
    "point_order":453,
    "city_id":16,
    "city":"Barcelona",
    "province_id":14,
    "province":"Catalonia",
    "country_id":7,
    "country":"Spain"
  },
  {
    "id":448,
    "name":"Arc de Triomf",
    "description":"El arco del triunfo español...",
    "latitude":"4.139.092.722",
    "longitude":"218.051.327",
    "date":"26/04/2013 0:00",
    "point_order":454,
    "city_id":16,
    "city":"Barcelona",
    "province_id":14,
    "province":"Catalonia",
    "country_id":7,
    "country":"Spain"
  },
  {
    "id":449,
    "name":"Parc de la Ciutadella",
    "description":"Un parque con la fuente de gaudi, un par de museos, el parlamento catalan y el zoo de barcelona.",
    "latitude":"4.138.925.740",
    "longitude":"218.399.820",
    "date":"26/04/2013 0:00",
    "point_order":456,
    "city_id":16,
    "city":"Barcelona",
    "province_id":14,
    "province":"Catalonia",
    "country_id":7,
    "country":"Spain"
  },
  {
    "id":450,
    "name":"Playa!",
    "description":"A pesar de que el dia estaba horrible y que estaba por largarse a llover en cualquier momento fuimos a caminar por la playa. Si bien no hacia frio (tampoco calor) habia muchisima gente en el mar (la mayoria surfers).",
    "latitude":"4.138.139.315",
    "longitude":"219.494.700",
    "date":"26/04/2013 0:00",
    "point_order":457,
    "city_id":16,
    "city":"Barcelona",
    "province_id":14,
    "province":"Catalonia",
    "country_id":7,
    "country":"Spain"
  },
  {
    "id":451,
    "name":"El Barri Gòtic",
    "description":"El barrio gotico es el barrio mas antiguo de barcelona. Se lo considera el casco historico y tiene un trazado muy particular por lo que es bastante facil perderse. Por eso en muchas esquinas hay carteles señalando para donde queda la salida.",
    "latitude":"4.138.190.550",
    "longitude":"217.818.500",
    "date":"26/04/2013 0:00",
    "point_order":458,
    "city_id":16,
    "city":"Barcelona",
    "province_id":14,
    "province":"Catalonia",
    "country_id":7,
    "country":"Spain"
  },
  {
    "id":452,
    "name":"Catedral de Barcelona",
    "description":"Tiene un estilo claramente gotico y una de las entradas es por el claustro que esta a un lado el cual tiene un patio con una fuente en el medio llena de ganzos.",
    "latitude":"4.138.419.800",
    "longitude":"217.629.600",
    "date":"26/04/2013 0:00",
    "point_order":459,
    "city_id":16,
    "city":"Barcelona",
    "province_id":14,
    "province":"Catalonia",
    "country_id":7,
    "country":"Spain"
  },
  {
    "id":458,
    "name":"Casa Batlló",
    "description":"Lo mismo que con los otros edificois de gaudi. mucha gente y caro! Me quede con las ganas...",
    "latitude":"4.139.170.000",
    "longitude":"216.491.800",
    "date":"27/04/2013 0:00",
    "point_order":464,
    "city_id":16,
    "city":"Barcelona",
    "province_id":14,
    "province":"Catalonia",
    "country_id":7,
    "country":"Spain"
  },
  {
    "id":457,
    "name":"La Pedrera - Casa Mila",
    "description":"Lo mismo que con los otros edificois de gaudi. mucha gente y caro! Me quede con las ganas...",
    "latitude":"4.139.530.870",
    "longitude":"216.183.540",
    "date":"27/04/2013 0:00",
    "point_order":465,
    "city_id":16,
    "city":"Barcelona",
    "province_id":14,
    "province":"Catalonia",
    "country_id":7,
    "country":"Spain"
  },
  {
    "id":460,
    "name":"Parc Güell",
    "description":"Este parque tambien fue diseñado por Gaudi. Es muy loco e imperdible.",
    "latitude":"4.141.348.840",
    "longitude":"215.312.810",
    "date":"27/04/2013 0:00",
    "point_order":467,
    "city_id":16,
    "city":"Barcelona",
    "province_id":14,
    "province":"Catalonia",
    "country_id":7,
    "country":"Spain"
  },
  {
    "id":461,
    "name":"Plaça de Catalunya",
    "description":"",
    "latitude":"4.138.662.310",
    "longitude":"216.934.020",
    "date":"27/04/2013 0:00",
    "point_order":468,
    "city_id":16,
    "city":"Barcelona",
    "province_id":14,
    "province":"Catalonia",
    "country_id":7,
    "country":"Spain"
  },
  {
    "id":462,
    "name":"Mercado de la Boqueria",
    "description":"Un mercado que venden jamones de todo tipo, frutas y pescados.",
    "latitude":"4.138.165.075",
    "longitude":"217.172.227",
    "date":"27/04/2013 0:00",
    "point_order":469,
    "city_id":16,
    "city":"Barcelona",
    "province_id":14,
    "province":"Catalonia",
    "country_id":7,
    "country":"Spain"
  },
  {
    "id":463,
    "name":"Plaça Reial",
    "description":"",
    "latitude":"4.138.000.480",
    "longitude":"217.504.080",
    "date":"27/04/2013 0:00",
    "point_order":470,
    "city_id":16,
    "city":"Barcelona",
    "province_id":14,
    "province":"Catalonia",
    "country_id":7,
    "country":"Spain"
  },
  {
    "id":464,
    "name":"Santa Maria del Pi",
    "description":"",
    "latitude":"4.138.208.710",
    "longitude":"217.361.660",
    "date":"27/04/2013 0:00",
    "point_order":471,
    "city_id":16,
    "city":"Barcelona",
    "province_id":14,
    "province":"Catalonia",
    "country_id":7,
    "country":"Spain"
  },
  {
    "id":465,
    "name":"Ramblas",
    "description":"",
    "latitude":"4.138.191.203",
    "longitude":"217.255.206",
    "date":"27/04/2013 0:00",
    "point_order":472,
    "city_id":16,
    "city":"Barcelona",
    "province_id":14,
    "province":"Catalonia",
    "country_id":7,
    "country":"Spain"
  },
  {
    "id":469,
    "name":"Magic Fountain of Montjuic",
    "description":"En teoria se ve como en la foto, pero fuimos en un horario que esta apagada. Con el clima que hay estos dias nos vamos a quedar sin ver el show...",
    "latitude":"4.137.104.990",
    "longitude":"215.180.060",
    "date":"28/04/2013 0:00",
    "point_order":476,
    "city_id":16,
    "city":"Barcelona",
    "province_id":14,
    "province":"Catalonia",
    "country_id":7,
    "country":"Spain"
  },
  {
    "id":470,
    "name":"Palacio Nacional - Museo Nacional de Arte",
    "description":"",
    "latitude":"4.136.828.850",
    "longitude":"215.218.020",
    "date":"28/04/2013 0:00",
    "point_order":477,
    "city_id":16,
    "city":"Barcelona",
    "province_id":14,
    "province":"Catalonia",
    "country_id":7,
    "country":"Spain"
  },
  {
    "id":471,
    "name":"Palau Sant Jordi",
    "description":"",
    "latitude":"4.136.162.670",
    "longitude":"215.298.840",
    "date":"28/04/2013 0:00",
    "point_order":478,
    "city_id":16,
    "city":"Barcelona",
    "province_id":14,
    "province":"Catalonia",
    "country_id":7,
    "country":"Spain"
  },
  {
    "id":472,
    "name":"Estadio Olimpico",
    "description":"",
    "latitude":"4.136.594.500",
    "longitude":"215.576.480",
    "date":"28/04/2013 0:00",
    "point_order":479,
    "city_id":16,
    "city":"Barcelona",
    "province_id":14,
    "province":"Catalonia",
    "country_id":7,
    "country":"Spain"
  },
  {
    "id":473,
    "name":"Montjuïc Castle",
    "description":"",
    "latitude":"4.136.338.150",
    "longitude":"216.623.160",
    "date":"28/04/2013 0:00",
    "point_order":480,
    "city_id":16,
    "city":"Barcelona",
    "province_id":14,
    "province":"Catalonia",
    "country_id":7,
    "country":"Spain"
  },
  {
    "id":474,
    "name":"World Trade Center",
    "description":"",
    "latitude":"4.137.303.730",
    "longitude":"217.851.530",
    "date":"28/04/2013 0:00",
    "point_order":481,
    "city_id":16,
    "city":"Barcelona",
    "province_id":14,
    "province":"Catalonia",
    "country_id":7,
    "country":"Spain"
  },
  {
    "id":478,
    "name":"Carrer Muralla",
    "description":"La ciudad tiene los restos de esta muralla que rodea el centro historico. Se puede subir y recorrer caminando por arriba de ella.",
    "latitude":"4.198.196.645",
    "longitude":"282.601.387",
    "date":"29/04/2013 0:00",
    "point_order":485,
    "city_id":107,
    "city":"Girona",
    "province_id":14,
    "province":"Catalonia",
    "country_id":7,
    "country":"Spain"
  },
  {
    "id":479,
    "name":"Plaça Catalunya",
    "description":"",
    "latitude":"4.198.190.270",
    "longitude":"282.361.380",
    "date":"29/04/2013 0:00",
    "point_order":486,
    "city_id":107,
    "city":"Girona",
    "province_id":14,
    "province":"Catalonia",
    "country_id":7,
    "country":"Spain"
  },
  {
    "id":480,
    "name":"Plaza de la Francesa",
    "description":"",
    "latitude":"4.198.697.892",
    "longitude":"282.834.917",
    "date":"29/04/2013 0:00",
    "point_order":487,
    "city_id":107,
    "city":"Girona",
    "province_id":14,
    "province":"Catalonia",
    "country_id":7,
    "country":"Spain"
  },
  {
    "id":481,
    "name":"Catedral",
    "description":"",
    "latitude":"4.198.734.960",
    "longitude":"282.636.760",
    "date":"29/04/2013 0:00",
    "point_order":488,
    "city_id":107,
    "city":"Girona",
    "province_id":14,
    "province":"Catalonia",
    "country_id":7,
    "country":"Spain"
  },
  {
    "id":482,
    "name":"Sant Feliu",
    "description":"",
    "latitude":"4.198.756.270",
    "longitude":"282.460.910",
    "date":"29/04/2013 0:00",
    "point_order":489,
    "city_id":107,
    "city":"Girona",
    "province_id":14,
    "province":"Catalonia",
    "country_id":7,
    "country":"Spain"
  },
  {
    "id":483,
    "name":"Puente de Gomez",
    "description":"",
    "latitude":"4.198.666.454",
    "longitude":"282.400.936",
    "date":"29/04/2013 0:00",
    "point_order":490,
    "city_id":107,
    "city":"Girona",
    "province_id":14,
    "province":"Catalonia",
    "country_id":7,
    "country":"Spain"
  },
  {
    "id":484,
    "name":"Pont de les Peixateries Velles - Puente de Eiffel",
    "description":"",
    "latitude":"4.198.454.492",
    "longitude":"282.389.328",
    "date":"29/04/2013 0:00",
    "point_order":491,
    "city_id":107,
    "city":"Girona",
    "province_id":14,
    "province":"Catalonia",
    "country_id":7,
    "country":"Spain"
  },
  {
    "id":485,
    "name":"Puente de Piedra",
    "description":"",
    "latitude":"4.198.275.180",
    "longitude":"282.378.930",
    "date":"29/04/2013 0:00",
    "point_order":492,
    "city_id":107,
    "city":"Girona",
    "province_id":14,
    "province":"Catalonia",
    "country_id":7,
    "country":"Spain"
  },
  {
    "id":486,
    "name":"Plaça Independència",
    "description":"",
    "latitude":"4.198.611.050",
    "longitude":"282.325.020",
    "date":"29/04/2013 0:00",
    "point_order":493,
    "city_id":107,
    "city":"Girona",
    "province_id":14,
    "province":"Catalonia",
    "country_id":7,
    "country":"Spain"
  },
  {
    "id":488,
    "name":"Capitole",
    "description":"",
    "latitude":"4.360.442.920",
    "longitude":"144.381.210",
    "date":"30/04/2013 0:00",
    "point_order":495,
    "city_id":108,
    "city":"Toulouse",
    "province_id":60,
    "province":"Midi-Pyrénées",
    "country_id":5,
    "country":"France"
  },
  {
    "id":489,
    "name":"Place Saint-Sernin",
    "description":"",
    "latitude":"4.360.792.120",
    "longitude":"144.194.330",
    "date":"30/04/2013 0:00",
    "point_order":496,
    "city_id":108,
    "city":"Toulouse",
    "province_id":60,
    "province":"Midi-Pyrénées",
    "country_id":5,
    "country":"France"
  },
  {
    "id":490,
    "name":"Hôtel d'Assézat",
    "description":"",
    "latitude":"4.360.008.900",
    "longitude":"144.207.800",
    "date":"30/04/2013 0:00",
    "point_order":497,
    "city_id":108,
    "city":"Toulouse",
    "province_id":60,
    "province":"Midi-Pyrénées",
    "country_id":5,
    "country":"France"
  },
  {
    "id":491,
    "name":"Pont Neuf",
    "description":"",
    "latitude":"4.359.931.910",
    "longitude":"143.887.670",
    "date":"30/04/2013 0:00",
    "point_order":498,
    "city_id":108,
    "city":"Toulouse",
    "province_id":60,
    "province":"Midi-Pyrénées",
    "country_id":5,
    "country":"France"
  },
  {
    "id":492,
    "name":"Jardin du Compans Caffarelli - Jarin Japones",
    "description":"Es un parque que adentro tiene un jardin japones adentro con un jardin zen.",
    "latitude":"4.361.171.979",
    "longitude":"143.232.604",
    "date":"01/05/2013 0:00",
    "point_order":499,
    "city_id":108,
    "city":"Toulouse",
    "province_id":60,
    "province":"Midi-Pyrénées",
    "country_id":5,
    "country":"France"
  },
  {
    "id":493,
    "name":"Plais des Sports",
    "description":"",
    "latitude":"4.361.221.694",
    "longitude":"143.537.303",
    "date":"01/05/2013 0:00",
    "point_order":500,
    "city_id":108,
    "city":"Toulouse",
    "province_id":60,
    "province":"Midi-Pyrénées",
    "country_id":5,
    "country":"France"
  },
  {
    "id":494,
    "name":"Paroisse de Saint Aubin",
    "description":"",
    "latitude":"4.360.429.220",
    "longitude":"145.432.780",
    "date":"01/05/2013 0:00",
    "point_order":501,
    "city_id":108,
    "city":"Toulouse",
    "province_id":60,
    "province":"Midi-Pyrénées",
    "country_id":5,
    "country":"France"
  },
  {
    "id":495,
    "name":"Halle Aux Grains",
    "description":"",
    "latitude":"4.360.003.696",
    "longitude":"145.397.500",
    "date":"01/05/2013 0:00",
    "point_order":502,
    "city_id":108,
    "city":"Toulouse",
    "province_id":60,
    "province":"Midi-Pyrénées",
    "country_id":5,
    "country":"France"
  },
  {
    "id":496,
    "name":"Monument aux Combattants de la Haute-Garonne",
    "description":"",
    "latitude":"4.360.010.450",
    "longitude":"145.204.040",
    "date":"01/05/2013 0:00",
    "point_order":503,
    "city_id":108,
    "city":"Toulouse",
    "province_id":60,
    "province":"Midi-Pyrénées",
    "country_id":5,
    "country":"France"
  },
  {
    "id":497,
    "name":"Cathédrale Saint-Étienne",
    "description":"",
    "latitude":"4.359.993.660",
    "longitude":"145.049.210",
    "date":"01/05/2013 0:00",
    "point_order":504,
    "city_id":108,
    "city":"Toulouse",
    "province_id":60,
    "province":"Midi-Pyrénées",
    "country_id":5,
    "country":"France"
  },
  {
    "id":498,
    "name":"Jardin du Grand-Rond",
    "description":"",
    "latitude":"4.359.498.850",
    "longitude":"145.194.280",
    "date":"01/05/2013 0:00",
    "point_order":505,
    "city_id":108,
    "city":"Toulouse",
    "province_id":60,
    "province":"Midi-Pyrénées",
    "country_id":5,
    "country":"France"
  },
  {
    "id":499,
    "name":"Le Jardin Royal",
    "description":"",
    "latitude":"4.359.644.550",
    "longitude":"145.086.960",
    "date":"01/05/2013 0:00",
    "point_order":506,
    "city_id":108,
    "city":"Toulouse",
    "province_id":60,
    "province":"Midi-Pyrénées",
    "country_id":5,
    "country":"France"
  },
  {
    "id":500,
    "name":"Monumento a Antoine de Saint-Exupéry",
    "description":"",
    "latitude":"4.359.524.738",
    "longitude":"144.972.727",
    "date":"01/05/2013 0:00",
    "point_order":507,
    "city_id":108,
    "city":"Toulouse",
    "province_id":60,
    "province":"Midi-Pyrénées",
    "country_id":5,
    "country":"France"
  },
  {
    "id":501,
    "name":"Jardin des Plantes",
    "description":"",
    "latitude":"4.359.277.700",
    "longitude":"145.240.500",
    "date":"01/05/2013 0:00",
    "point_order":508,
    "city_id":108,
    "city":"Toulouse",
    "province_id":60,
    "province":"Midi-Pyrénées",
    "country_id":5,
    "country":"France"
  },
  {
    "id":502,
    "name":"Palais de Justice",
    "description":"",
    "latitude":"4.359.229.340",
    "longitude":"144.467.030",
    "date":"01/05/2013 0:00",
    "point_order":509,
    "city_id":108,
    "city":"Toulouse",
    "province_id":60,
    "province":"Midi-Pyrénées",
    "country_id":5,
    "country":"France"
  },
  {
    "id":503,
    "name":"Palais Niel",
    "description":"",
    "latitude":"4.359.728.230",
    "longitude":"145.096.950",
    "date":"01/05/2013 0:00",
    "point_order":510,
    "city_id":108,
    "city":"Toulouse",
    "province_id":60,
    "province":"Midi-Pyrénées",
    "country_id":5,
    "country":"France"
  },
  {
    "id":504,
    "name":"Place de la Trinité",
    "description":"",
    "latitude":"4.359.970.200",
    "longitude":"144.430.100",
    "date":"01/05/2013 0:00",
    "point_order":511,
    "city_id":108,
    "city":"Toulouse",
    "province_id":60,
    "province":"Midi-Pyrénées",
    "country_id":5,
    "country":"France"
  },
  {
    "id":506,
    "name":"Playa! Y con sol!",
    "description":"Hoy llegamos a Marsella. La ciudad no me gusto demasiado, me parecio sucia, desprolija, fea... Aprovechamos para ir a la playa ya que habia un sol tremendo y en la zona cercana a la playa es mas lindo (tambien se ve mas caro con casonas, calles mas cuidadas y parquizadas).Las playas no me parecieron nada del otro mundo (son chiquitas y en algunas hay arena y piedras, otras solo piedra) pero lo que si es inmejorable es la vista, para eso dejo la foto...",
    "latitude":"4.326.198.942",
    "longitude":"537.231.201",
    "date":"02/05/2013 0:00",
    "point_order":513,
    "city_id":109,
    "city":"Marseille",
    "province_id":61,
    "province":"Provence-Alpes-Côte d'Azur",
    "country_id":5,
    "country":"France"
  },
  {
    "id":508,
    "name":"Calanque de Sugiton",
    "description":"Despues de media hora de colectivo llegamos a la entrada del parque. Caminamos un rato largo y llegamos a la costa. La vista es increible y cuando bajamos llegamos a una parte con piedras bordeando el agua. Mas tarde fuimos a una playita chiquita entre lo calaques. INCREIBLE.",
    "latitude":"4.321.047.990",
    "longitude":"545.558.300",
    "date":"03/05/2013 0:00",
    "point_order":515,
    "city_id":109,
    "city":"Marseille",
    "province_id":61,
    "province":"Provence-Alpes-Côte d'Azur",
    "country_id":5,
    "country":"France"
  },
  {
    "id":509,
    "name":"Playa en Niza",
    "description":"Llegamos y salimos corriendo a la playa. Despues salimos a recorrer un poco y la verdad que es MUY lindo Niza. Mucho contraste con Marsella.",
    "latitude":"4.369.463.970",
    "longitude":"727.700.748",
    "date":"04/05/2013 0:00",
    "point_order":516,
    "city_id":110,
    "city":"Nice",
    "province_id":61,
    "province":"Provence-Alpes-Côte d'Azur",
    "country_id":5,
    "country":"France"
  },
  {
    "id":510,
    "name":"Place Masséna",
    "description":"",
    "latitude":"4.369.694.490",
    "longitude":"727.079.730",
    "date":"04/05/2013 0:00",
    "point_order":517,
    "city_id":110,
    "city":"Nice",
    "province_id":61,
    "province":"Provence-Alpes-Côte d'Azur",
    "country_id":5,
    "country":"France"
  },
  {
    "id":511,
    "name":"Colline du Château",
    "description":"Una colina que tiene una vista muy linda de Niza. De un lado se ve toda la ciudad y las playas, del otro se ve el amarradero de yates y cruceros. Sobre la colina hay un parque con juegos para chicos.",
    "latitude":"4.369.720.400",
    "longitude":"727.999.270",
    "date":"04/05/2013 0:00",
    "point_order":518,
    "city_id":110,
    "city":"Nice",
    "province_id":61,
    "province":"Provence-Alpes-Côte d'Azur",
    "country_id":5,
    "country":"France"
  },
  {
    "id":512,
    "name":"Caminando por el centro",
    "description":"Solo puedo decir que es MUY lindo Niza!",
    "latitude":"4.369.758.750",
    "longitude":"726.720.790",
    "date":"04/05/2013 0:00",
    "point_order":519,
    "city_id":110,
    "city":"Nice",
    "province_id":61,
    "province":"Provence-Alpes-Côte d'Azur",
    "country_id":5,
    "country":"France"
  },
  {
    "id":513,
    "name":"Duomo di Milano",
    "description":"Una iglesia ENORME. Llena de vitraux pero muy lugubre. Algo loco, estan momificados dos beatos de esa iglesia en una vitrina con sus trajes.",
    "latitude":"4.546.409.259",
    "longitude":"919.105.593",
    "date":"05/05/2013 0:00",
    "point_order":520,
    "city_id":19,
    "city":"Milan",
    "province_id":16,
    "province":"Lombardy",
    "country_id":9,
    "country":"Italy"
  },
  {
    "id":514,
    "name":"Galleria Vittorio Emanuele II",
    "description":"",
    "latitude":"4.546.522.505",
    "longitude":"918.997.761",
    "date":"05/05/2013 0:00",
    "point_order":521,
    "city_id":19,
    "city":"Milan",
    "province_id":16,
    "province":"Lombardy",
    "country_id":9,
    "country":"Italy"
  },
  {
    "id":515,
    "name":"Castello Sforzesco",
    "description":"",
    "latitude":"4.547.061.230",
    "longitude":"917.864.490",
    "date":"05/05/2013 0:00",
    "point_order":522,
    "city_id":19,
    "city":"Milan",
    "province_id":16,
    "province":"Lombardy",
    "country_id":9,
    "country":"Italy"
  },
  {
    "id":516,
    "name":"Piazza Castello",
    "description":"",
    "latitude":"4.547.179.279",
    "longitude":"917.721.823",
    "date":"05/05/2013 0:00",
    "point_order":523,
    "city_id":19,
    "city":"Milan",
    "province_id":16,
    "province":"Lombardy",
    "country_id":9,
    "country":"Italy"
  },
  {
    "id":517,
    "name":"Arco della Pace",
    "description":"",
    "latitude":"4.547.568.510",
    "longitude":"917.239.840",
    "date":"05/05/2013 0:00",
    "point_order":524,
    "city_id":19,
    "city":"Milan",
    "province_id":16,
    "province":"Lombardy",
    "country_id":9,
    "country":"Italy"
  },
  {
    "id":518,
    "name":"Lugano",
    "description":"Llegamos recorrimos todo y nos fuimos. Una linda ciudad, chiquita, muy prolija y cara. Parece una version miniatura de Bariloche (salvando las distancias).",
    "latitude":"4.600.426.014",
    "longitude":"895.844.269",
    "date":"06/05/2013 0:00",
    "point_order":525,
    "city_id":18,
    "city":"Lugano",
    "province_id":15,
    "province":"Ticino",
    "country_id":8,
    "country":"Switzerland"
  },
  {
    "id":520,
    "name":"Como",
    "description":"Despues de Lugano pasamor por Como. Una ciudad chiquita con un lago tambien. Es una mini ciudad italiana del estereotipo de las peliculas. Muy linda.",
    "latitude":"4.581.768.895",
    "longitude":"908.227.086",
    "date":"06/05/2013 0:00",
    "point_order":527,
    "city_id":111,
    "city":"Como",
    "province_id":16,
    "province":"Lombardy",
    "country_id":9,
    "country":"Italy"
  },
  {
    "id":521,
    "name":"Duomo di Como",
    "description":"Pasamos por la Catedral de Como. Es enorme y esta bastante buena. Igualmente más chica que la de Milan.",
    "latitude":"4.581.188.980",
    "longitude":"908.399.880",
    "date":"06/05/2013 0:00",
    "point_order":528,
    "city_id":111,
    "city":"Como",
    "province_id":16,
    "province":"Lombardy",
    "country_id":9,
    "country":"Italy"
  },
  {
    "id":522,
    "name":"Duomo di Milano de noche",
    "description":"",
    "latitude":"4.546.446.130",
    "longitude":"918.922.130",
    "date":"06/05/2013 0:00",
    "point_order":529,
    "city_id":19,
    "city":"Milan",
    "province_id":16,
    "province":"Lombardy",
    "country_id":9,
    "country":"Italy"
  },
  {
    "id":523,
    "name":"Galleria Vittorio Emanuele II de noche",
    "description":"",
    "latitude":"4.546.469.080",
    "longitude":"919.000.980",
    "date":"06/05/2013 0:00",
    "point_order":530,
    "city_id":19,
    "city":"Milan",
    "province_id":16,
    "province":"Lombardy",
    "country_id":9,
    "country":"Italy"
  },
  {
    "id":524,
    "name":"Lindenhof",
    "description":"Una linda vista desde esta plaza del rio y el centro de la ciudad. ",
    "latitude":"4.737.301.598",
    "longitude":"854.136.380",
    "date":"07/05/2013 0:00",
    "point_order":531,
    "city_id":17,
    "city":"Zurich",
    "province_id":7,
    "province":"South Holland",
    "country_id":8,
    "country":"Switzerland"
  },
  {
    "id":525,
    "name":"Sankt Peter Kirche",
    "description":"",
    "latitude":"4.737.112.770",
    "longitude":"854.060.370",
    "date":"07/05/2013 0:00",
    "point_order":532,
    "city_id":17,
    "city":"Zurich",
    "province_id":7,
    "province":"South Holland",
    "country_id":8,
    "country":"Switzerland"
  },
  {
    "id":526,
    "name":"Augustinergasse Straat",
    "description":"",
    "latitude":"4.737.208.000",
    "longitude":"853.959.000",
    "date":"07/05/2013 0:00",
    "point_order":533,
    "city_id":17,
    "city":"Zurich",
    "province_id":7,
    "province":"South Holland",
    "country_id":8,
    "country":"Switzerland"
  },
  {
    "id":527,
    "name":"Florence",
    "description":"Llegamos a Florencia, salimos a buscar un supermercado para comprar algo para cenar y la verdad que es muy linda la ciudad aunque un poco sucia y olores (por lo menos la zona que recorrimos).",
    "latitude":"4.377.103.320",
    "longitude":"1.124.800.060",
    "date":"08/05/2013 0:00",
    "point_order":534,
    "city_id":21,
    "city":"Florence",
    "province_id":17,
    "province":"Tuscany",
    "country_id":9,
    "country":"Italy"
  },
  {
    "id":528,
    "name":"Duomo di Firence",
    "description":"",
    "latitude":"4.377.305.926",
    "longitude":"1.125.702.813",
    "date":"09/05/2013 0:00",
    "point_order":535,
    "city_id":21,
    "city":"Florence",
    "province_id":17,
    "province":"Tuscany",
    "country_id":9,
    "country":"Italy"
  },
  {
    "id":529,
    "name":"Ponte Vecchio",
    "description":"",
    "latitude":"4.376.798.850",
    "longitude":"1.125.313.410",
    "date":"09/05/2013 0:00",
    "point_order":536,
    "city_id":21,
    "city":"Florence",
    "province_id":17,
    "province":"Tuscany",
    "country_id":9,
    "country":"Italy"
  },
  {
    "id":530,
    "name":"Piazzale Michelangelo",
    "description":"Tiene una increible vista de todo Florencia. Para mi mejor que subir a la cupula o a la torre del duomo ya que se ve lo mas importante... EL DUOMO!",
    "latitude":"4.376.282.100",
    "longitude":"1.126.501.130",
    "date":"09/05/2013 0:00",
    "point_order":537,
    "city_id":21,
    "city":"Florence",
    "province_id":17,
    "province":"Tuscany",
    "country_id":9,
    "country":"Italy"
  },
  {
    "id":531,
    "name":"Duomo di Firence de noche",
    "description":"",
    "latitude":"4.377.280.360",
    "longitude":"1.125.597.670",
    "date":"09/05/2013 0:00",
    "point_order":538,
    "city_id":21,
    "city":"Florence",
    "province_id":17,
    "province":"Tuscany",
    "country_id":9,
    "country":"Italy"
  },
  {
    "id":532,
    "name":"Ponte Vecchio de noche",
    "description":"",
    "latitude":"4.376.798.850",
    "longitude":"1.125.313.410",
    "date":"09/05/2013 0:00",
    "point_order":539,
    "city_id":21,
    "city":"Florence",
    "province_id":17,
    "province":"Tuscany",
    "country_id":9,
    "country":"Italy"
  },
  {
    "id":533,
    "name":"Leaning Tower of Pisa",
    "description":"",
    "latitude":"4.372.295.160",
    "longitude":"1.039.659.710",
    "date":"10/05/2013 0:00",
    "point_order":540,
    "city_id":20,
    "city":"Pisa",
    "province_id":17,
    "province":"Tuscany",
    "country_id":9,
    "country":"Italy"
  },
  {
    "id":534,
    "name":"Cinque Terre - Riomaggiore",
    "description":"",
    "latitude":"4.409.920.386",
    "longitude":"973.728.633",
    "date":"10/05/2013 0:00",
    "point_order":541,
    "city_id":15,
    "city":"Riomaggiore",
    "province_id":62,
    "province":"Liguria",
    "country_id":9,
    "country":"Italy"
  },
  {
    "id":535,
    "name":"Cinque Terre - Manarola",
    "description":"",
    "latitude":"4.410.645.969",
    "longitude":"972.732.765",
    "date":"10/05/2013 0:00",
    "point_order":542,
    "city_id":112,
    "city":"Manarola",
    "province_id":62,
    "province":"Liguria",
    "country_id":9,
    "country":"Italy"
  },
  {
    "id":536,
    "name":"Cinque Terre - Vernazza",
    "description":"",
    "latitude":"4.413.492.110",
    "longitude":"968.499.350",
    "date":"10/05/2013 0:00",
    "point_order":543,
    "city_id":113,
    "city":"Vernazza",
    "province_id":62,
    "province":"Liguria",
    "country_id":9,
    "country":"Italy"
  },
  {
    "id":537,
    "name":"Colosseum",
    "description":"",
    "latitude":"4.189.026.800",
    "longitude":"1.249.231.500",
    "date":"11/05/2013 0:00",
    "point_order":544,
    "city_id":22,
    "city":"Rome",
    "province_id":18,
    "province":"Lazio",
    "country_id":9,
    "country":"Italy"
  },
  {
    "id":538,
    "name":"Foros romanos",
    "description":"",
    "latitude":"4.188.828.724",
    "longitude":"1.248.744.411",
    "date":"11/05/2013 0:00",
    "point_order":545,
    "city_id":22,
    "city":"Rome",
    "province_id":18,
    "province":"Lazio",
    "country_id":9,
    "country":"Italy"
  },
  {
    "id":539,
    "name":"Altar of the Fatherland",
    "description":"",
    "latitude":"4.189.459.010",
    "longitude":"1.248.310.520",
    "date":"11/05/2013 0:00",
    "point_order":546,
    "city_id":22,
    "city":"Rome",
    "province_id":18,
    "province":"Lazio",
    "country_id":9,
    "country":"Italy"
  },
  {
    "id":540,
    "name":"Piazza della Repubblica de noche",
    "description":"",
    "latitude":"4.190.245.080",
    "longitude":"1.249.652.060",
    "date":"11/05/2013 0:00",
    "point_order":547,
    "city_id":22,
    "city":"Rome",
    "province_id":18,
    "province":"Lazio",
    "country_id":9,
    "country":"Italy"
  },
  {
    "id":541,
    "name":"Plaza San Pedro",
    "description":"Aprovechamos que habia una ceremonia de canonizacion y fuimos a visitar el vaticano. Llegamos justo para poder sentarnos. cuando termino nos pusimos justo donde iba a pasar Franchesco con el papamovil.",
    "latitude":"4.190.197.010",
    "longitude":"1.245.704.600",
    "date":"12/05/2013 0:00",
    "point_order":548,
    "city_id":22,
    "city":"Rome",
    "province_id":18,
    "province":"Lazio",
    "country_id":22,
    "country":"Vatican City"
  },
  {
    "id":543,
    "name":"Castel Sant'Angelo",
    "description":"",
    "latitude":"4.190.273.700",
    "longitude":"1.246.640.000",
    "date":"12/05/2013 0:00",
    "point_order":549,
    "city_id":22,
    "city":"Rome",
    "province_id":18,
    "province":"Lazio",
    "country_id":9,
    "country":"Italy"
  },
  {
    "id":542,
    "name":"Piazza del Popolo",
    "description":"",
    "latitude":"4.191.101.910",
    "longitude":"1.247.618.790",
    "date":"12/05/2013 0:00",
    "point_order":550,
    "city_id":22,
    "city":"Rome",
    "province_id":18,
    "province":"Lazio",
    "country_id":9,
    "country":"Italy"
  },
  {
    "id":544,
    "name":"Piazza Navona, Rome",
    "description":"",
    "latitude":"4.189.855.240",
    "longitude":"1.247.321.100",
    "date":"12/05/2013 0:00",
    "point_order":551,
    "city_id":22,
    "city":"Rome",
    "province_id":18,
    "province":"Lazio",
    "country_id":9,
    "country":"Italy"
  },
  {
    "id":545,
    "name":"Area Sacra di Largo Argentina",
    "description":"",
    "latitude":"4.189.562.100",
    "longitude":"1.247.682.830",
    "date":"12/05/2013 0:00",
    "point_order":552,
    "city_id":22,
    "city":"Rome",
    "province_id":18,
    "province":"Lazio",
    "country_id":9,
    "country":"Italy"
  },
  {
    "id":546,
    "name":"Pantheon",
    "description":"Se construyo en el año 80 antes de cristo.",
    "latitude":"4.189.886.100",
    "longitude":"1.247.693.060",
    "date":"12/05/2013 0:00",
    "point_order":553,
    "city_id":22,
    "city":"Rome",
    "province_id":18,
    "province":"Lazio",
    "country_id":9,
    "country":"Italy"
  },
  {
    "id":547,
    "name":"Trevi Fountain",
    "description":"Increible la cantidad de gente que habia. Con un sol fuerticimo estaban todos tomando sombra al costado de la fuente.",
    "latitude":"4.190.100.460",
    "longitude":"1.248.328.530",
    "date":"12/05/2013 0:00",
    "point_order":554,
    "city_id":22,
    "city":"Rome",
    "province_id":18,
    "province":"Lazio",
    "country_id":9,
    "country":"Italy"
  },
  {
    "id":548,
    "name":"Musei Vaticani",
    "description":"Despues de una hora y media de cola entramos a los museos vaticanos. Colecciones de arte de todos lados de todos los tiempos.",
    "latitude":"4.190.555.537",
    "longitude":"1.245.456.493",
    "date":"13/05/2013 0:00",
    "point_order":555,
    "city_id":22,
    "city":"Rome",
    "province_id":18,
    "province":"Lazio",
    "country_id":9,
    "country":"Italy"
  },
  {
    "id":549,
    "name":"Sistine Chapel",
    "description":"",
    "latitude":"4.190.304.400",
    "longitude":"1.245.446.200",
    "date":"13/05/2013 0:00",
    "point_order":556,
    "city_id":15,
    "city":"Vaticane",
    "province_id":35,
    "province":"",
    "country_id":22,
    "country":"Vatican City"
  },
  {
    "id":550,
    "name":"Basilica di San Pietro",
    "description":"",
    "latitude":"4.190.214.930",
    "longitude":"1.245.509.510",
    "date":"13/05/2013 0:00",
    "point_order":557,
    "city_id":22,
    "city":"Rome",
    "province_id":18,
    "province":"Lazio",
    "country_id":22,
    "country":"Vatican City"
  },
  {
    "id":551,
    "name":"Piazza di San Pietro",
    "description":"",
    "latitude":"4.190.224.512",
    "longitude":"1.245.745.544",
    "date":"13/05/2013 0:00",
    "point_order":558,
    "city_id":22,
    "city":"Rome",
    "province_id":18,
    "province":"Lazio",
    "country_id":22,
    "country":"Vatican City"
  },
  {
    "id":552,
    "name":"Isola Tiberina",
    "description":"",
    "latitude":"4.189.097.839",
    "longitude":"1.247.639.338",
    "date":"13/05/2013 0:00",
    "point_order":559,
    "city_id":22,
    "city":"Rome",
    "province_id":18,
    "province":"Lazio",
    "country_id":9,
    "country":"Italy"
  },
  {
    "id":553,
    "name":"Piazza di Spagna",
    "description":"",
    "latitude":"4.190.606.660",
    "longitude":"1.248.176.940",
    "date":"13/05/2013 0:00",
    "point_order":560,
    "city_id":22,
    "city":"Rome",
    "province_id":18,
    "province":"Lazio",
    "country_id":9,
    "country":"Italy"
  },
  {
    "id":554,
    "name":"Scalinata Trinita dei Monti",
    "description":"",
    "latitude":"4.190.459.000",
    "longitude":"1.247.926.000",
    "date":"13/05/2013 0:00",
    "point_order":561,
    "city_id":22,
    "city":"Rome",
    "province_id":18,
    "province":"Lazio",
    "country_id":9,
    "country":"Italy"
  },
  {
    "id":555,
    "name":"Fonte Acqua Paola",
    "description":"",
    "latitude":"4.188.879.620",
    "longitude":"1.246.425.988",
    "date":"14/05/2013 0:00",
    "point_order":562,
    "city_id":22,
    "city":"Rome",
    "province_id":18,
    "province":"Lazio",
    "country_id":9,
    "country":"Italy"
  },
  {
    "id":557,
    "name":"Piazza di San Pietro in Montorio",
    "description":"",
    "latitude":"4.188.858.400",
    "longitude":"1.246.665.000",
    "date":"14/05/2013 0:00",
    "point_order":563,
    "city_id":22,
    "city":"Rome",
    "province_id":18,
    "province":"Lazio",
    "country_id":9,
    "country":"Italy"
  },
  {
    "id":556,
    "name":"Chiesa San Pietro in Montorio",
    "description":"",
    "latitude":"4.188.858.400",
    "longitude":"1.246.665.000",
    "date":"14/05/2013 0:00",
    "point_order":564,
    "city_id":22,
    "city":"Rome",
    "province_id":18,
    "province":"Lazio",
    "country_id":9,
    "country":"Italy"
  },
  {
    "id":558,
    "name":"Bocca della Verità",
    "description":"",
    "latitude":"4.188.813.200",
    "longitude":"1.248.140.000",
    "date":"14/05/2013 0:00",
    "point_order":565,
    "city_id":22,
    "city":"Rome",
    "province_id":18,
    "province":"Lazio",
    "country_id":9,
    "country":"Italy"
  },
  {
    "id":559,
    "name":"Santa Maria in Cosmedin",
    "description":"",
    "latitude":"4.188.818.900",
    "longitude":"1.248.143.500",
    "date":"14/05/2013 0:00",
    "point_order":566,
    "city_id":22,
    "city":"Rome",
    "province_id":18,
    "province":"Lazio",
    "country_id":9,
    "country":"Italy"
  },
  {
    "id":560,
    "name":"Castel dell'Ovo",
    "description":"",
    "latitude":"4.082.831.570",
    "longitude":"1.424.760.440",
    "date":"15/05/2013 0:00",
    "point_order":567,
    "city_id":24,
    "city":"Naples",
    "province_id":19,
    "province":"Campania",
    "country_id":9,
    "country":"Italy"
  },
  {
    "id":561,
    "name":"Piazza del Plebiscito",
    "description":"",
    "latitude":"4.083.661.250",
    "longitude":"1.424.861.840",
    "date":"15/05/2013 0:00",
    "point_order":568,
    "city_id":24,
    "city":"Naples",
    "province_id":19,
    "province":"Campania",
    "country_id":9,
    "country":"Italy"
  },
  {
    "id":562,
    "name":"San Francesco di Paola",
    "description":"",
    "latitude":"4.083.519.070",
    "longitude":"1.424.731.430",
    "date":"15/05/2013 0:00",
    "point_order":569,
    "city_id":24,
    "city":"Naples",
    "province_id":19,
    "province":"Campania",
    "country_id":9,
    "country":"Italy"
  },
  {
    "id":563,
    "name":"Umberto the Ist Gallery",
    "description":"",
    "latitude":"4.083.849.160",
    "longitude":"1.424.937.970",
    "date":"15/05/2013 0:00",
    "point_order":570,
    "city_id":24,
    "city":"Naples",
    "province_id":19,
    "province":"Campania",
    "country_id":9,
    "country":"Italy"
  },
  {
    "id":564,
    "name":"Castel Nuovo",
    "description":"",
    "latitude":"4.083.842.400",
    "longitude":"1.425.240.000",
    "date":"15/05/2013 0:00",
    "point_order":571,
    "city_id":24,
    "city":"Naples",
    "province_id":19,
    "province":"Campania",
    "country_id":9,
    "country":"Italy"
  },
  {
    "id":565,
    "name":"Duomo of Naples",
    "description":"",
    "latitude":"4.085.244.510",
    "longitude":"1.425.923.840",
    "date":"15/05/2013 0:00",
    "point_order":572,
    "city_id":24,
    "city":"Naples",
    "province_id":19,
    "province":"Campania",
    "country_id":9,
    "country":"Italy"
  },
  {
    "id":566,
    "name":"Piazza Bartolo Longo",
    "description":"",
    "latitude":"4.074.897.770",
    "longitude":"1.449.950.880",
    "date":"16/05/2013 0:00",
    "point_order":573,
    "city_id":115,
    "city":"Pompei",
    "province_id":19,
    "province":"Campania",
    "country_id":9,
    "country":"Italy"
  },
  {
    "id":567,
    "name":"Ciudad arqueologica",
    "description":"Es increible ver una ciudad que en el 72 DC quedo congelada despues de que la cubriera la erupcion del vesubio. Todavia estan las ruinas de como era la ciudad entera y se pueden ver personas focilizadas en la posicion en la que murieron. Es increible!",
    "latitude":"4.075.038.600",
    "longitude":"1.448.422.400",
    "date":"16/05/2013 0:00",
    "point_order":574,
    "city_id":115,
    "city":"Pompei",
    "province_id":19,
    "province":"Campania",
    "country_id":9,
    "country":"Italy"
  },
  {
    "id":568,
    "name":"Vietri sul mare",
    "description":"Quisimos ir a Amalfi y cuando llegamos a la estacion, salimos a la ciudad que ahi estaba y despues de un rato vimos que era Vietri. La oficina de turismo estaba cerrada asi que nos quedamos toda la tarde ahi. Cuando volvimos ya habia abierto, preguntamos y resulta que habia que tomar un colectivo y a una hora de distancia esta Amalfi.",
    "latitude":"4.067.281.601",
    "longitude":"1.472.792.656",
    "date":"16/05/2013 0:00",
    "point_order":575,
    "city_id":116,
    "city":"Vietri Sul Mare",
    "province_id":19,
    "province":"Campania",
    "country_id":9,
    "country":"Italy"
  },
  {
    "id":569,
    "name":"Playa",
    "description":"",
    "latitude":"4.066.721.249",
    "longitude":"1.472.820.689",
    "date":"16/05/2013 0:00",
    "point_order":576,
    "city_id":116,
    "city":"Vietri Sul Mare",
    "province_id":19,
    "province":"Campania",
    "country_id":9,
    "country":"Italy"
  },
  {
    "id":570,
    "name":"Sorrento",
    "description":"El servicio meteorologico decia lluvia todo el dia y nos despertamos con lluvia... pero media hora despues un sol terrible. Teniendo fe me fui con jean y un paraguas en la mochila con la esperanza de poder recorrer sorrento... lo que paso fue que el sol se quedo y solo me pude mojar los pies xq para que iba a llevar maya y toalla?",
    "latitude":"4.062.629.250",
    "longitude":"1.437.579.850",
    "date":"17/05/2013 0:00",
    "point_order":577,
    "city_id":117,
    "city":"Sorrento",
    "province_id":19,
    "province":"Campania",
    "country_id":9,
    "country":"Italy"
  },
  {
    "id":571,
    "name":"Capri",
    "description":"",
    "latitude":"4.055.068.990",
    "longitude":"1.424.280.030",
    "date":"18/05/2013 0:00",
    "point_order":578,
    "city_id":118,
    "city":"Capri",
    "province_id":19,
    "province":"Campania",
    "country_id":9,
    "country":"Italy"
  },
  {
    "id":572,
    "name":"Marina Piccola",
    "description":"",
    "latitude":"4.054.518.229",
    "longitude":"1.423.350.635",
    "date":"18/05/2013 0:00",
    "point_order":579,
    "city_id":118,
    "city":"Capri",
    "province_id":19,
    "province":"Campania",
    "country_id":9,
    "country":"Italy"
  },
  {
    "id":573,
    "name":"Ponte Scalzi",
    "description":"",
    "latitude":"4.544.110.700",
    "longitude":"1.232.281.760",
    "date":"19/05/2013 0:00",
    "point_order":580,
    "city_id":25,
    "city":"Venice",
    "province_id":20,
    "province":"Veneto",
    "country_id":9,
    "country":"Italy"
  },
  {
    "id":574,
    "name":"Ponte di Rialto",
    "description":"",
    "latitude":"4.543.803.970",
    "longitude":"1.233.591.110",
    "date":"19/05/2013 0:00",
    "point_order":581,
    "city_id":25,
    "city":"Venice",
    "province_id":20,
    "province":"Veneto",
    "country_id":9,
    "country":"Italy"
  },
  {
    "id":575,
    "name":"Piazza San Marco",
    "description":"",
    "latitude":"4.543.399.540",
    "longitude":"1.233.781.880",
    "date":"19/05/2013 0:00",
    "point_order":582,
    "city_id":25,
    "city":"Venice",
    "province_id":20,
    "province":"Veneto",
    "country_id":9,
    "country":"Italy"
  },
  {
    "id":576,
    "name":"Venice de noche",
    "description":"",
    "latitude":"4.544.084.740",
    "longitude":"1.231.551.510",
    "date":"19/05/2013 0:00",
    "point_order":583,
    "city_id":25,
    "city":"Venice",
    "province_id":20,
    "province":"Veneto",
    "country_id":9,
    "country":"Italy"
  },
  {
    "id":577,
    "name":"Calle de l'Orto",
    "description":"",
    "latitude":"4.544.505.130",
    "longitude":"1.232.627.880",
    "date":"20/05/2013 0:00",
    "point_order":584,
    "city_id":25,
    "city":"Venice",
    "province_id":20,
    "province":"Veneto",
    "country_id":9,
    "country":"Italy"
  },
  {
    "id":578,
    "name":"St. Stephen's Cathedral",
    "description":"",
    "latitude":"4.820.841.140",
    "longitude":"1.637.347.070",
    "date":"21/05/2013 0:00",
    "point_order":585,
    "city_id":27,
    "city":"Vienna",
    "province_id":21,
    "province":"Vienna",
    "country_id":10,
    "country":"Austria"
  },
  {
    "id":579,
    "name":"St. Peter's Church",
    "description":"",
    "latitude":"4.820.943.090",
    "longitude":"1.637.008.410",
    "date":"21/05/2013 0:00",
    "point_order":586,
    "city_id":27,
    "city":"Vienna",
    "province_id":21,
    "province":"Vienna",
    "country_id":10,
    "country":"Austria"
  },
  {
    "id":580,
    "name":"Schönbrunn Castle",
    "description":"",
    "latitude":"4.818.486.480",
    "longitude":"1.631.223.980",
    "date":"21/05/2013 0:00",
    "point_order":587,
    "city_id":27,
    "city":"Vienna",
    "province_id":21,
    "province":"Vienna",
    "country_id":10,
    "country":"Austria"
  },
  {
    "id":581,
    "name":"Hofburg zu Wien",
    "description":"",
    "latitude":"4.820.774.700",
    "longitude":"1.636.586.300",
    "date":"22/05/2013 0:00",
    "point_order":588,
    "city_id":27,
    "city":"Vienna",
    "province_id":21,
    "province":"Vienna",
    "country_id":10,
    "country":"Austria"
  },
  {
    "id":582,
    "name":"Parlament",
    "description":"",
    "latitude":"4.820.795.900",
    "longitude":"1.635.915.900",
    "date":"22/05/2013 0:00",
    "point_order":589,
    "city_id":27,
    "city":"Vienna",
    "province_id":21,
    "province":"Vienna",
    "country_id":10,
    "country":"Austria"
  },
  {
    "id":583,
    "name":"La casa de Mozart",
    "description":"",
    "latitude":"4.820.815.900",
    "longitude":"1.637.487.060",
    "date":"22/05/2013 0:00",
    "point_order":590,
    "city_id":27,
    "city":"Vienna",
    "province_id":21,
    "province":"Vienna",
    "country_id":10,
    "country":"Austria"
  },
  {
    "id":584,
    "name":"Donau",
    "description":"",
    "latitude":"4.822.624.625",
    "longitude":"1.641.450.265",
    "date":"22/05/2013 0:00",
    "point_order":591,
    "city_id":27,
    "city":"Vienna",
    "province_id":21,
    "province":"Vienna",
    "country_id":10,
    "country":"Austria"
  },
  {
    "id":585,
    "name":"Casa Hundertwasser",
    "description":"",
    "latitude":"4.820.747.560",
    "longitude":"1.639.331.020",
    "date":"22/05/2013 0:00",
    "point_order":592,
    "city_id":27,
    "city":"Vienna",
    "province_id":21,
    "province":"Vienna",
    "country_id":10,
    "country":"Austria"
  },
  {
    "id":586,
    "name":"Pražský orloj",
    "description":"Pasamos por el reloj que esta en la plaza principal del barrio viejo. A cada hora salen unos muñecos (al mejor estilo del reloj del centro civico de bariloche). Ademas tiene un reloj astronomico.",
    "latitude":"5.008.699.660",
    "longitude":"1.442.077.340",
    "date":"23/05/2013 0:00",
    "point_order":593,
    "city_id":28,
    "city":"Prague",
    "province_id":22,
    "province":"Hlavní m?sto Praha",
    "country_id":11,
    "country":"Czech Republic"
  },
  {
    "id":587,
    "name":"Karl?v most",
    "description":"",
    "latitude":"5.008.671.940",
    "longitude":"1.440.953.980",
    "date":"23/05/2013 0:00",
    "point_order":594,
    "city_id":28,
    "city":"Prague",
    "province_id":22,
    "province":"Hlavní m?sto Praha",
    "country_id":11,
    "country":"Czech Republic"
  },
  {
    "id":588,
    "name":"Karlov College y Teatro Estatal",
    "description":"A la izquiera la univiersidad, una de las primeras de europa. A la derecha el teatro donde Mozart presento Don Giovani.",
    "latitude":"5.009.111.450",
    "longitude":"1.442.750.240",
    "date":"24/05/2013 0:00",
    "point_order":595,
    "city_id":28,
    "city":"Prague",
    "province_id":22,
    "province":"Hlavní m?sto Praha",
    "country_id":11,
    "country":"Czech Republic"
  },
  {
    "id":589,
    "name":"Wenceslas Square",
    "description":"",
    "latitude":"5.008.163.020",
    "longitude":"1.442.686.960",
    "date":"24/05/2013 0:00",
    "point_order":596,
    "city_id":28,
    "city":"Prague",
    "province_id":22,
    "province":"Hlavní m?sto Praha",
    "country_id":11,
    "country":"Czech Republic"
  },
  {
    "id":590,
    "name":"Municipal House",
    "description":"",
    "latitude":"5.008.777.290",
    "longitude":"1.442.799.060",
    "date":"24/05/2013 0:00",
    "point_order":597,
    "city_id":28,
    "city":"Prague",
    "province_id":22,
    "province":"Hlavní m?sto Praha",
    "country_id":11,
    "country":"Czech Republic"
  },
  {
    "id":591,
    "name":"Puerta (Torre) de la Polvora",
    "description":"",
    "latitude":"5.008.777.290",
    "longitude":"1.442.799.060",
    "date":"24/05/2013 0:00",
    "point_order":598,
    "city_id":28,
    "city":"Prague",
    "province_id":22,
    "province":"Hlavní m?sto Praha",
    "country_id":11,
    "country":"Czech Republic"
  },
  {
    "id":592,
    "name":"Escultura de Kafka",
    "description":"Se basa en una historia de Kafka que se basa en un sueño recurrente que tenia el sobre una persona sin manos ni cabeza que lo perseguia hasta que una noche soño que se subia y lo guiaba por la ciudad. En el piso se ven las patas de una araña en base a otra historia en la que se convertia en una araña gigante.",
    "latitude":"5.009.014.763",
    "longitude":"1.442.073.047",
    "date":"24/05/2013 0:00",
    "point_order":599,
    "city_id":28,
    "city":"Prague",
    "province_id":22,
    "province":"Hlavní m?sto Praha",
    "country_id":11,
    "country":"Czech Republic"
  },
  {
    "id":593,
    "name":"Metronomo",
    "description":"Ahi habia un monumento a Stalin. Despues de que asumio Gorbachov y este mandara a destruir todos los simbolos Stanilistas en Rusia, en Praga destruyeron este y pusieron ese metronomo que marca el tiempo en que Republica Checa es libre.",
    "latitude":"5.009.467.502",
    "longitude":"1.441.595.650",
    "date":"24/05/2013 0:00",
    "point_order":600,
    "city_id":28,
    "city":"Prague",
    "province_id":22,
    "province":"Hlavní m?sto Praha",
    "country_id":11,
    "country":"Czech Republic"
  },
  {
    "id":594,
    "name":"Old New Synagogue",
    "description":"En esta sinagoga nace la historia del golem y segun se dice dentro esta el golem muerto.",
    "latitude":"5.009.006.550",
    "longitude":"1.441.856.780",
    "date":"24/05/2013 0:00",
    "point_order":601,
    "city_id":28,
    "city":"Prague",
    "province_id":22,
    "province":"Hlavní m?sto Praha",
    "country_id":11,
    "country":"Czech Republic"
  },
  {
    "id":595,
    "name":"John Lennon Wall",
    "description":"",
    "latitude":"5.008.617.390",
    "longitude":"1.440.680.980",
    "date":"24/05/2013 0:00",
    "point_order":602,
    "city_id":28,
    "city":"Prague",
    "province_id":22,
    "province":"Hlavní m?sto Praha",
    "country_id":11,
    "country":"Czech Republic"
  },
  {
    "id":596,
    "name":"Dancing House",
    "description":"",
    "latitude":"5.007.555.560",
    "longitude":"1.441.416.670",
    "date":"24/05/2013 0:00",
    "point_order":603,
    "city_id":28,
    "city":"Prague",
    "province_id":35,
    "province":"",
    "country_id":11,
    "country":"Czech Republic"
  },
  {
    "id":597,
    "name":"Prague Castle",
    "description":"",
    "latitude":"5.009.035.600",
    "longitude":"1.439.938.500",
    "date":"25/05/2013 0:00",
    "point_order":604,
    "city_id":28,
    "city":"Prague",
    "province_id":22,
    "province":"Hlavní m?sto Praha",
    "country_id":11,
    "country":"Czech Republic"
  },
  {
    "id":598,
    "name":"Malá Strana",
    "description":"",
    "latitude":"5.008.782.660",
    "longitude":"1.440.465.700",
    "date":"25/05/2013 0:00",
    "point_order":605,
    "city_id":28,
    "city":"Prague",
    "province_id":35,
    "province":"",
    "country_id":11,
    "country":"Czech Republic"
  },
  {
    "id":599,
    "name":"Karlsplatz",
    "description":"",
    "latitude":"4.813.893.000",
    "longitude":"1.156.632.000",
    "date":"27/05/2013 0:00",
    "point_order":606,
    "city_id":29,
    "city":"Munich",
    "province_id":23,
    "province":"Bavaria",
    "country_id":1,
    "country":"Germany"
  },
  {
    "id":600,
    "name":"Munich Frauenkirche",
    "description":"",
    "latitude":"4.813.859.290",
    "longitude":"1.157.304.580",
    "date":"27/05/2013 0:00",
    "point_order":607,
    "city_id":29,
    "city":"Munich",
    "province_id":23,
    "province":"Bavaria",
    "country_id":1,
    "country":"Germany"
  },
  {
    "id":601,
    "name":"Munich Glockenspiel",
    "description":"",
    "latitude":"4.813.750.130",
    "longitude":"1.157.547.230",
    "date":"27/05/2013 0:00",
    "point_order":608,
    "city_id":29,
    "city":"Munich",
    "province_id":23,
    "province":"Bavaria",
    "country_id":1,
    "country":"Germany"
  },
  {
    "id":602,
    "name":"München Marienplatz",
    "description":"",
    "latitude":"4.813.704.800",
    "longitude":"1.157.538.600",
    "date":"27/05/2013 0:00",
    "point_order":609,
    "city_id":29,
    "city":"Munich",
    "province_id":23,
    "province":"Bavaria",
    "country_id":1,
    "country":"Germany"
  },
  {
    "id":603,
    "name":"St. Michael's Church",
    "description":"",
    "latitude":"4.813.857.160",
    "longitude":"1.157.035.420",
    "date":"27/05/2013 0:00",
    "point_order":610,
    "city_id":29,
    "city":"Munich",
    "province_id":23,
    "province":"Bavaria",
    "country_id":1,
    "country":"Germany"
  },
  {
    "id":604,
    "name":"St. Peter's Church",
    "description":"",
    "latitude":"4.813.649.670",
    "longitude":"1.157.567.150",
    "date":"27/05/2013 0:00",
    "point_order":611,
    "city_id":29,
    "city":"Munich",
    "province_id":23,
    "province":"Bavaria",
    "country_id":1,
    "country":"Germany"
  },
  {
    "id":605,
    "name":"Viktualienmarkt",
    "description":"",
    "latitude":"4.813.520.450",
    "longitude":"1.157.659.700",
    "date":"27/05/2013 0:00",
    "point_order":612,
    "city_id":29,
    "city":"Munich",
    "province_id":23,
    "province":"Bavaria",
    "country_id":1,
    "country":"Germany"
  },
  {
    "id":606,
    "name":"English Gardens",
    "description":"",
    "latitude":"4.815.159.340",
    "longitude":"1.159.241.080",
    "date":"27/05/2013 0:00",
    "point_order":613,
    "city_id":29,
    "city":"Munich",
    "province_id":23,
    "province":"Bavaria",
    "country_id":1,
    "country":"Germany"
  },
  {
    "id":607,
    "name":"Estatua de Julieta",
    "description":"",
    "latitude":"4.813.658.561",
    "longitude":"1.157.698.274",
    "date":"27/05/2013 0:00",
    "point_order":614,
    "city_id":29,
    "city":"Munich",
    "province_id":23,
    "province":"Bavaria",
    "country_id":1,
    "country":"Germany"
  },
  {
    "id":608,
    "name":"Estacion Bockenheimer Warte del subte",
    "description":"Una estacion de subte bastante loca, como si hubiese chocado un tren y salio a la superficie!",
    "latitude":"5.011.956.520",
    "longitude":"865.370.820",
    "date":"30/05/2013 0:00",
    "point_order":615,
    "city_id":3,
    "city":"Frankfurt",
    "province_id":3,
    "province":"Hesse",
    "country_id":1,
    "country":"Germany"
  }
]